City_ID,City,Lat,Lng,Max Temp,Humidity,Cloudiness,Wind Speed,Country,Date
0,weno,7.4515,151.8468,28.970000000000027,84,100,4.12,FM,1722041451
1,zhangjiakou,40.81,114.8794,24.879999999999995,76,83,0.81,CN,1722041452
2,blackmans bay,-43.0167,147.3167,10.410000000000025,70,100,1.96,AU,1722041453
3,portland,45.5234,-122.6762,29.379999999999995,35,20,6.17,US,1722040980
4,kalmunai,7.4167,81.8167,28.27000000000004,61,100,2.38,LK,1722041455
5,anadyr,64.75,177.4833,10.28000000000003,66,100,6.0,RU,1722041457
6,port mathurin,-19.6833,63.4167,22.689999999999998,77,75,7.91,MU,1722041458
7,cidreira,-30.1811,-50.2056,16.310000000000002,89,32,3.53,BR,1722041459
8,vorkuta,67.5,64.0,8.640000000000043,94,100,2.13,RU,1722041460
9,ebon,4.582,168.6964,28.360000000000014,79,100,6.64,MH,1722041461
10,remire-montjoly,4.9167,-52.2667,24.02000000000004,94,100,1.03,GF,1722041462
11,hawaiian paradise park,19.5933,-154.9731,27.730000000000018,69,40,5.66,US,1722041463
12,pestravka,52.405,49.9583,13.010000000000048,71,100,3.44,RU,1722041464
13,edinburgh of the seven seas,-37.0676,-12.3116,11.160000000000025,65,100,5.41,SH,1722041466
14,thompson,55.7435,-97.8558,25.090000000000032,38,75,7.2,CA,1722041467
15,necochea,-38.5473,-58.7368,8.879999999999995,73,71,4.09,AR,1722041468
16,san pedro pochutla,15.7333,-96.4667,27.620000000000005,79,97,1.8,MX,1722041469
17,waitangi,-43.9535,-176.5597,11.010000000000048,92,8,2.68,NZ,1722041470
18,wailua homesteads,22.0669,-159.378,27.439999999999998,80,75,7.72,US,1722041472
19,jamestown,42.097,-79.2353,21.80000000000001,60,0,3.09,US,1722041474
20,khorixas,-20.3667,14.9667,10.25,51,0,0.85,NA,1722041475
21,albany,42.6001,-73.9662,21.07000000000005,63,0,3.88,US,1722041402
22,tura,25.5198,90.2201,27.32000000000005,92,100,1.44,IN,1722041478
23,isafjordur,66.0755,-23.124,7.160000000000025,98,100,0.59,IS,1722041479
24,badger,64.8,-147.5333,15.140000000000043,82,100,1.34,US,1722041480
25,bemidji,47.4736,-94.8803,29.05000000000001,73,0,6.17,US,1722041216
26,papatowai,-46.5619,169.4708,12.920000000000016,83,100,1.25,NZ,1722041483
27,ust-nera,64.5667,143.2,17.350000000000023,37,100,1.91,RU,1722041484
28,salihli,38.4826,28.1477,20.930000000000007,59,0,1.1,TR,1722041485
29,grand falls-windsor,48.9332,-55.6649,13.610000000000014,90,100,2.24,CA,1722041486
30,tiksi,71.6872,128.8694,7.78000000000003,73,8,2.53,RU,1722041487
31,grytviken,-54.2811,-36.5092,-1.1099999999999568,83,10,5.55,GS,1722041488
32,jiangyou,31.7667,104.7167,27.980000000000018,77,100,1.86,CN,1722041490
33,afaahiti,-17.75,-149.2833,26.930000000000007,71,39,6.22,PF,1722041491
34,sarangani,5.4033,125.4636,28.010000000000048,74,88,4.79,PH,1722041492
35,ola,59.5833,151.2833,16.110000000000014,45,0,1.04,RU,1722041493
36,georgetown,5.4112,100.3354,29.960000000000036,83,20,2.57,MY,1722041494
37,puerto baquerizo moreno,-0.9,-89.6,19.939999999999998,80,16,5.32,EC,1722041495
38,bethel,41.3712,-73.414,23.83000000000004,71,0,0.0,US,1722041372
39,erzincan,39.75,39.5,17.610000000000014,94,75,0.51,TR,1722041499
40,sandpoint,48.2766,-116.5533,26.920000000000016,28,0,3.09,US,1722041500
41,margaret river,-33.95,115.0667,14.920000000000016,60,8,4.85,AU,1722041501
42,tongchuanshi,35.0806,109.0897,27.210000000000036,65,78,2.5,CN,1722041502
43,hotan,37.0997,79.9269,29.53000000000003,22,0,0.83,CN,1722041503
44,iqaluit,63.7506,-68.5145,4.850000000000023,80,75,8.75,CA,1722041504
45,port-aux-francais,-49.35,70.2167,-2.3100000000000023,75,100,19.32,TF,1722041506
46,ebaye,8.7748,167.7392,30.010000000000048,74,40,4.63,MH,1722041507
47,san antonio de pale,-1.4014,5.6325,22.879999999999995,87,100,5.19,GQ,1722041508
48,klyuchi,52.2667,79.1667,24.83000000000004,64,100,2.3,RU,1722041509
49,mhango,-3.2833,32.85,18.590000000000032,36,9,1.65,TZ,1722041510
50,meadow lake,34.8014,-106.5436,29.58000000000004,33,93,5.39,US,1722041511
51,port elizabeth,-33.918,25.5701,10.730000000000018,95,0,0.89,ZA,1722041512
52,rongelap,11.1635,166.8941,28.210000000000036,80,100,8.37,MH,1722041514
53,puerto natales,-51.7236,-72.4875,0.6700000000000159,99,93,1.52,CL,1722041239
54,aibak,36.2647,68.0155,27.460000000000036,27,0,2.4,AF,1722041516
55,kingston,17.997,-76.7936,31.53000000000003,62,20,5.14,JM,1722041507
56,constantia,44.1833,28.65,18.379999999999995,81,0,5.28,RO,1722041518
57,kilinochchi,9.3961,80.3982,28.08000000000004,74,99,4.62,LK,1722041520
58,calama,-22.4667,-68.9333,11.270000000000039,6,0,3.09,CL,1722041509
59,ushuaia,-54.8,-68.3,0.8100000000000023,93,100,6.69,AR,1722041522
60,college,64.8569,-147.8028,15.180000000000007,78,100,0.45,US,1722041523
61,kuvandyk,51.4781,57.3552,10.230000000000018,91,53,6.25,RU,1722041524
62,kupang,-10.1667,123.5833,27.32000000000005,83,75,4.12,ID,1722041525
63,qarauyl,48.9451,79.255,25.450000000000045,47,100,1.93,KZ,1722041526
64,nemuro,43.3236,145.575,15.010000000000048,86,3,1.1,JP,1722041527
65,merelani,-3.5618,36.979,16.49000000000001,84,6,2.09,TZ,1722041529
66,saacow,1.6279,42.4407,22.78000000000003,89,36,4.03,SO,1722041530
67,mahikeng,-25.8652,25.6442,4.990000000000009,42,7,1.54,ZA,1722041531
68,port blair,11.6667,92.75,29.02000000000004,84,75,6.69,IN,1722041532
69,hermanus,-34.4187,19.2345,12.010000000000048,82,0,6.92,ZA,1722041533
70,tazovsky,67.4667,78.7,10.5,90,100,2.81,RU,1722041534
71,stanley,54.868,-1.6985,10.950000000000045,88,100,2.09,GB,1722041535
72,ataq,14.5377,46.8319,26.100000000000023,61,66,5.38,YE,1722041537
73,archangelos,36.2149,28.1149,26.99000000000001,62,0,5.51,GR,1722041538
74,adamstown,-25.066,-130.1015,20.420000000000016,75,100,6.68,PN,1722041539
75,media luna,20.1419,-77.435,23.24000000000001,80,100,4.83,CU,1722041540
76,khandyga,62.6667,135.6,17.910000000000025,77,95,3.81,RU,1722041541
77,inyonga,-6.7167,32.0667,16.960000000000036,23,0,2.19,TZ,1722041542
78,tromso,69.6496,18.957,14.010000000000048,88,88,0.0,NO,1722041543
79,alesund,62.4723,6.1549,13.890000000000043,90,20,2.06,NO,1722041544
80,yellowknife,62.456,-114.3525,24.670000000000016,47,75,7.72,CA,1722041546
81,aykhal,66.0,111.5,16.200000000000045,57,12,0.68,RU,1722041547
82,sinabang,2.4803,96.3801,28.02000000000004,78,100,2.48,ID,1722041548
83,santa rosa de rio primero,-31.1523,-63.4019,14.82000000000005,42,100,2.82,AR,1722041549
84,west island,-12.1568,96.8225,25.99000000000001,89,75,1.54,CC,1722041550
85,harper,4.375,-7.7169,24.120000000000005,87,100,4.18,LR,1722041551
86,rio grande,-32.035,-52.0986,13.060000000000002,91,0,3.26,BR,1722041417
87,bilibino,68.0546,166.4372,8.960000000000036,53,86,1.35,RU,1722041554
88,konarka,19.9,86.1167,27.220000000000027,85,100,4.28,IN,1722041555
89,codrington,-38.2667,141.9667,8.28000000000003,80,100,4.53,AU,1722041556
90,nezhinka,51.7676,55.3694,10.090000000000032,87,20,6.0,RU,1722041557
91,plastun,44.7561,136.2939,15.760000000000048,100,100,0.54,RU,1722041558
92,whitehorse,60.7161,-135.0538,21.430000000000007,46,75,7.72,CA,1722041559
93,antsiranana,-12.2787,49.2917,20.980000000000018,85,79,2.98,MG,1722041560
94,anshun,26.25,105.9333,24.52000000000004,77,100,1.61,CN,1722041562
95,ribeira grande,38.5167,-28.7,22.650000000000034,87,11,1.79,PT,1722041563
96,alo,6.5486,4.2686,24.160000000000025,90,81,3.36,NG,1722041564
97,longyearbyen,78.2186,15.6401,9.910000000000025,81,75,3.09,SJ,1722041565
98,mizdah,31.4451,12.9801,23.27000000000004,57,0,3.28,LY,1722041566
99,shalqar,47.8333,59.6,21.860000000000014,38,100,2.68,KZ,1722041567
100,yanqul,23.5905,56.5501,32.81,18,28,1.2,OM,1722041568
101,kavaratti,10.5669,72.642,28.010000000000048,86,100,9.21,IN,1722041569
102,olonkinbyen,70.9221,-8.7187,4.860000000000014,100,100,4.16,SJ,1722041571
103,serhiyivka,46.0272,30.3768,20.28000000000003,75,100,4.18,UA,1722041572
104,oum hadjer,13.2954,19.6966,25.470000000000027,82,100,4.93,TD,1722041573
105,avarua,-21.2078,-159.775,26.03000000000003,78,75,6.17,CK,1722041574
106,harstad,68.799,16.5293,15.660000000000025,80,89,1.62,NO,1722041575
107,sao joao da barra,-21.6403,-41.0511,21.05000000000001,87,66,6.8,BR,1722041576
108,port lincoln,-34.7333,135.8667,12.400000000000034,45,27,6.97,AU,1722041579
109,vuktyl,63.8567,57.3094,10.710000000000036,73,71,1.68,RU,1722041580
110,yorkton,51.2167,-102.4677,23.910000000000025,41,0,6.17,CA,1722041581
111,mount gambier,-37.8333,140.7667,8.140000000000043,84,100,4.65,AU,1722041583
112,malvan,16.0667,73.4667,27.27000000000004,85,100,8.91,IN,1722041584
113,punta arenas,-53.15,-70.9167,1.0600000000000023,86,40,6.17,CL,1722041510
114,nuuk,64.1835,-51.7216,4.340000000000032,93,100,11.83,GL,1722041587
115,lorengau,-2.0226,147.2712,28.170000000000016,78,59,3.28,PG,1722041588
116,ancud,-41.8697,-73.8203,8.510000000000048,80,100,10.05,CL,1722041589
117,salekhard,66.53,66.6019,11.960000000000036,81,100,1.62,RU,1722041590
118,invercargill,-46.4,168.35,11.120000000000005,93,92,0.89,NZ,1722041443
119,dudinka,69.4058,86.1778,16.210000000000036,84,79,3.0,RU,1722041592
120,manicore,-5.8092,-61.3003,26.629999999999995,44,100,0.91,BR,1722041593
121,shimoda,34.6667,138.95,33.950000000000045,74,59,5.38,JP,1722041596
122,hasaki,35.7333,140.8333,31.220000000000027,78,96,2.15,JP,1722041597
123,labytnangi,66.6572,66.4183,11.78000000000003,84,100,1.62,RU,1722041598
124,lebu,-37.6167,-73.65,6.220000000000027,75,4,3.59,CL,1722041599
125,acajutla,13.5928,-89.8275,28.0,81,89,2.32,SV,1722041600
126,hamilton,39.1834,-84.5333,25.689999999999998,52,0,3.09,US,1722041204
127,dumai,1.6833,101.45,26.160000000000025,85,67,1.82,ID,1722041602
128,hadibu,12.65,54.0333,25.460000000000036,81,96,9.09,YE,1722041604
129,naryn,41.4287,75.9911,16.920000000000016,42,0,2.16,KG,1722041605
130,opelousas,30.5335,-92.0815,25.939999999999998,88,40,2.06,US,1722041606
131,bredasdorp,-34.5322,20.0403,8.230000000000018,90,0,2.59,ZA,1722041607
132,yeppoon,-23.1333,150.7333,22.920000000000016,72,16,3.37,AU,1722041608
133,puerto ayora,-0.7393,-90.3518,19.75,94,30,2.24,EC,1722041609
134,sargatskoye,55.6101,73.4972,17.58000000000004,92,92,4.76,RU,1722041610
135,susuman,62.7833,148.1667,13.930000000000007,44,5,0.75,RU,1722041612
136,arraial do cabo,-22.9661,-42.0278,22.30000000000001,82,100,4.37,BR,1722041613
137,san andres,12.5847,-81.7006,30.010000000000048,74,20,4.63,CO,1722041614
138,reyes,-14.3167,-67.3833,24.52000000000004,57,0,0.45,BO,1722041564
139,talnakh,69.4865,88.3972,18.32000000000005,78,69,0.66,RU,1722041616
140,cabo san lucas,22.8909,-109.9124,35.900000000000034,62,1,8.09,MX,1722041617
141,hirara,24.8,125.2833,30.150000000000034,84,75,9.77,JP,1722041619
142,mili,6.0815,171.735,28.58000000000004,78,94,6.42,MH,1722041621
143,arkhipo-osipovka,44.37,38.52,21.730000000000018,79,100,3.91,RU,1722041622
144,atafu village,-8.5421,-172.5159,28.32000000000005,66,64,2.57,TK,1722041623
145,akot,21.0964,77.0586,24.879999999999995,92,100,5.98,IN,1722041624
146,iskateley,67.6803,53.1512,8.340000000000032,77,100,3.6,RU,1722041625
147,yengema,8.7167,-11.1667,21.390000000000043,100,100,1.1,SL,1722041627
148,dhuusamarreeb,5.535,46.3861,23.52000000000004,78,88,8.22,SO,1722041628
149,prince rupert,54.3161,-130.3201,15.050000000000011,85,100,4.63,CA,1722041629
150,san luis de la loma,17.2706,-100.8939,28.54000000000002,80,100,3.24,MX,1722041630
151,junin de los andes,-39.9504,-71.0694,-0.14999999999997726,79,0,5.06,AR,1722041631
152,shakhovskaya,56.0283,35.5097,13.350000000000023,73,11,1.83,RU,1722041632
153,naze,28.3667,129.4833,29.510000000000048,78,18,5.61,JP,1722041633
154,murzuq,25.9155,13.9184,32.25,27,28,7.25,LY,1722041635
155,fada,7.25,4.0667,21.689999999999998,99,54,0.97,NG,1722041636
156,romanovo,52.6182,81.2271,23.710000000000036,73,10,0.96,RU,1722041637
157,fort st. john,56.2499,-120.8529,19.939999999999998,68,75,5.66,CA,1722041372
158,acopiara,-6.0953,-39.4525,21.939999999999998,49,6,1.79,BR,1722041639
159,nar'yan-mar,67.6713,53.087,8.300000000000011,77,100,3.58,RU,1722041383
160,limbdi,22.5667,71.8,27.460000000000036,80,100,5.48,IN,1722041641
161,igarka,67.4667,86.5833,16.900000000000034,85,100,1.96,RU,1722041643
162,garachico,28.7781,-17.7646,20.060000000000002,83,75,5.66,ES,1722041644
163,jaisalmer,26.9147,70.9181,29.629999999999995,68,100,7.95,IN,1722041645
164,bandarbeyla,9.4942,50.8122,25.08000000000004,82,100,12.01,SO,1722041646
165,udachny,66.4167,112.4,16.54000000000002,41,100,0.32,RU,1722041647
166,luanda,-8.8368,13.2343,20.140000000000043,85,83,1.95,AO,1722041620
167,san patricio,28.017,-97.5169,28.25,75,100,3.39,US,1722041485
168,ilulissat,69.2167,-51.1,6.010000000000048,87,75,3.09,GL,1722041653
169,alice springs,-23.7,133.8833,13.75,72,9,2.57,AU,1722041654
170,fale old settlement,-9.3852,-171.2468,28.060000000000002,68,26,2.77,TK,1722041655
171,sisimiut,66.9395,-53.6735,4.760000000000048,82,100,0.21,GL,1722041656
172,glendive,47.1053,-104.7125,27.79000000000002,21,0,4.12,US,1722041658
173,labrador city,52.9463,-66.9114,13.950000000000045,51,0,3.6,CA,1722041659
174,walvis bay,-22.9575,14.5053,10.050000000000011,93,0,3.6,NA,1722041660
175,scottsbluff,41.8666,-103.6672,23.129999999999995,64,100,6.69,US,1722041661
176,villa gesell,-37.2639,-56.973,8.360000000000014,78,99,4.26,AR,1722041400
177,ceerigaabo,10.6162,47.368,17.83000000000004,72,100,9.32,SO,1722041663
178,belyy yar,53.6039,91.3903,23.939999999999998,78,0,4.0,RU,1722041665
179,qaqortoq,60.7167,-46.0333,3.7200000000000273,83,100,1.96,GL,1722041666
180,nova sintra,14.8667,-24.7167,25.620000000000005,83,23,4.09,CV,1722041667
181,crane,31.3974,-102.3501,33.74000000000001,21,0,3.48,US,1722041668
182,grodzisk wielkopolski,52.2276,16.3653,17.860000000000014,82,56,2.3,PL,1722041669
183,yankton,42.8711,-97.3973,31.140000000000043,55,0,7.2,US,1722041496
184,kenai,60.5544,-151.2583,17.05000000000001,69,40,12.86,US,1722041673
185,farasan,16.7022,42.1183,30.77000000000004,78,76,4.49,SA,1722041674
186,westport,41.1415,-73.3579,25.420000000000016,61,100,0.89,US,1722041531
187,okhotsk,59.3833,143.3,14.939999999999998,88,100,1.86,RU,1722041676
188,progreso,21.2833,-89.6667,29.060000000000002,80,25,6.37,MX,1722041677
189,xai-xai,-25.0519,33.6442,16.660000000000025,88,3,3.95,MZ,1722041678
190,barakani,-12.1356,44.4317,24.060000000000002,64,25,3.89,KM,1722041679
191,freetown,8.484,-13.2299,24.840000000000032,94,75,6.17,SL,1722041681
192,aasiaat,68.7098,-52.8699,2.390000000000043,95,100,4.91,GL,1722041682
193,kourou,5.1552,-52.6478,24.03000000000003,93,100,2.47,GF,1722041683
194,saarijarvi,62.7049,25.254,14.410000000000025,94,19,0.6,FI,1722041685
195,kolonia town,6.964,158.206,32.06,79,100,5.14,FM,1722041686
196,samarskoye,46.9336,39.6814,19.879999999999995,46,2,4.54,RU,1722041687
197,vilyuchinsk,52.9306,158.4028,20.150000000000034,79,100,0.83,RU,1722041689
198,saipan,15.1355,145.701,30.390000000000043,79,0,3.09,MP,1722041690
199,bel ombre,-4.6167,55.4167,25.910000000000025,89,40,2.57,SC,1722041691
200,chimoio,-19.1164,33.4833,15.920000000000016,87,0,0.68,MZ,1722041692
201,stettler,52.3168,-112.7186,19.860000000000014,40,43,8.71,CA,1722041693
202,basco,20.4487,121.9702,28.79000000000002,85,100,9.61,PH,1722041694
203,new plymouth,-39.0667,174.0833,12.400000000000034,100,100,3.1,NZ,1722041695
204,vila franca do campo,37.7167,-25.4333,24.230000000000018,92,100,4.07,PT,1722041697
205,hawera,-39.5917,174.2833,13.580000000000041,68,77,4.39,NZ,1722041698
206,sassandra,4.95,-6.0833,23.350000000000023,95,100,2.59,CI,1722041699
207,abdulino,53.7,53.6667,11.610000000000014,91,100,8.75,RU,1722041700
208,kouango,4.9934,19.9619,21.58000000000004,95,99,0.66,CF,1722041701
209,castillos,-34.1667,-53.8333,8.550000000000011,94,0,1.39,UY,1722041702
210,utrik,11.2278,169.8474,28.010000000000048,81,66,9.41,MH,1722041703
211,port alfred,-33.5906,26.891,14.100000000000023,80,0,2.88,ZA,1722041653
212,tarakan,3.3,117.6333,28.720000000000027,100,40,1.54,ID,1722041706
213,kodiak,57.79,-152.4072,14.730000000000018,88,40,2.06,US,1722041707
214,yuzhno-kurilsk,44.0306,145.8556,18.140000000000043,75,4,2.13,RU,1722041708
215,eirunepe,-6.6603,-69.8736,27.410000000000025,60,88,1.54,BR,1722041709
216,vorgashor,67.5833,63.95,8.600000000000023,94,100,2.19,RU,1722041710
217,trincomalee,8.5711,81.2335,28.25,77,98,8.87,LK,1722041711
218,shabo,46.1326,30.386,20.600000000000023,73,100,4.32,UA,1722041712
219,ta`u,-14.2336,-169.5144,27.200000000000045,77,4,7.5,AS,1722041714
220,ad dabbah,18.05,30.95,29.07000000000005,55,64,2.87,SD,1722041715
221,kolwezi,-10.7148,25.4667,13.82000000000005,27,0,1.8,CD,1722041716
222,dunedin,-45.8742,170.5036,12.670000000000016,70,100,0.24,NZ,1722041717
223,alotau,-10.3069,150.4462,25.850000000000023,66,100,2.99,PG,1722041718
224,kalemie,-5.9475,29.1947,20.600000000000023,37,4,1.07,CD,1722041719
225,pogar,52.554,33.2591,16.450000000000045,73,100,1.75,RU,1722041720
226,yelizovo,53.1873,158.3805,20.08000000000004,64,40,5.0,RU,1722041722
227,sampit,-2.5333,112.95,28.350000000000023,74,86,1.57,ID,1722041723
228,inarajan village,13.2736,144.7484,30.55000000000001,85,67,3.98,GU,1722041724
229,malango,-2.9627,119.9001,23.74000000000001,84,35,0.85,ID,1722041725
230,crawfordsville,40.0411,-86.8745,23.620000000000005,60,40,2.06,US,1722041688
231,minot air force base,48.4209,-101.3391,23.100000000000023,46,75,3.6,US,1722041727
232,daira din panah,30.5702,70.9361,36.72000000000003,40,11,6.93,PK,1722041728
233,al ghayzah,16.2079,52.176,25.400000000000034,89,67,3.88,YE,1722041730
234,sao jose da coroa grande,-8.8978,-35.1478,24.060000000000002,81,54,4.95,BR,1722041731
235,fort bragg,35.139,-79.006,25.670000000000016,88,100,2.06,US,1722041732
236,saldanha,-33.0117,17.9442,13.03000000000003,89,0,6.06,ZA,1722041733
237,zhaozhou,45.6833,125.3167,25.510000000000048,84,54,6.47,CN,1722041734
238,zemio,5.0314,25.1361,20.189999999999998,99,100,1.06,CF,1722041735
239,corner brook,48.9667,-57.9484,12.090000000000032,98,100,1.73,CA,1722041621
240,durban,-29.8579,31.0292,13.510000000000048,66,0,3.26,ZA,1722041737
241,urzhar,47.093,81.6294,27.980000000000018,31,3,1.67,KZ,1722041740
242,petropavlovsk-kamchatsky,53.0452,158.6483,19.33000000000004,64,40,5.0,RU,1722041741
243,coquimbo,-29.9533,-71.3436,11.850000000000023,87,0,2.57,CL,1722041742
244,perry,37.2506,-83.1999,26.400000000000034,72,40,0.94,US,1722041743
245,aripuana,-9.1667,-60.6333,23.939999999999998,43,4,0.85,BR,1722041744
246,porto novo,6.4965,2.6036,24.210000000000036,88,30,4.05,BJ,1722041745
247,kencong,-8.2833,113.3667,25.870000000000005,71,60,0.3,ID,1722041747
248,multan,30.1956,71.4753,33.94,62,40,3.09,PK,1722041591
249,camlachie,43.036,-82.1616,20.980000000000018,72,0,2.57,CA,1722041749
250,ulaangom,49.9811,92.0667,25.24000000000001,38,100,1.0,MN,1722041750
251,taroa,8.7058,171.2275,28.410000000000025,81,95,8.15,MH,1722041751
252,nadym,65.5333,72.5167,10.960000000000036,84,100,1.11,RU,1722041752
253,camacupa,-12.0167,17.4833,13.050000000000011,19,0,0.6,AO,1722041753
254,beya,53.0533,90.9139,21.960000000000036,71,13,0.93,RU,1722041755
255,betio village,1.358,172.9211,28.400000000000034,69,11,6.0,KI,1722041756
256,puerto armuelles,8.2833,-82.8667,25.99000000000001,89,100,2.24,PA,1722041757
257,luderitz,-26.6481,15.1594,12.560000000000002,70,91,2.22,NA,1722041758
258,mantyharju,61.4167,26.8833,14.060000000000002,87,0,1.42,FI,1722041759
259,maceio,-9.6658,-35.7353,22.689999999999998,83,40,1.03,BR,1722041760
260,fortuna,40.5982,-124.1573,15.75,88,20,6.17,US,1722041762
261,flying fish cove,-10.4217,105.6791,25.82000000000005,78,75,5.66,CX,1722041763
262,benjamin constant,-4.3831,-70.0311,26.07000000000005,80,53,1.18,BR,1722041764
263,pisco,-13.7,-76.2167,17.03000000000003,77,0,2.06,PE,1722041765
264,manta,-0.95,-80.7333,23.879999999999995,83,100,3.09,EC,1722041766
265,touros,-5.1989,-35.4608,22.900000000000034,88,11,4.64,BR,1722041593
266,carbonear,47.7332,-53.2148,17.57000000000005,90,100,2.57,CA,1722041768
267,satna,24.5833,80.8333,27.600000000000023,86,100,2.25,IN,1722041770
268,poso,-1.3959,120.7524,29.30000000000001,67,97,0.85,ID,1722041772
269,malangali,-8.5667,34.85,14.580000000000041,36,0,5.1,TZ,1722041773
270,nakhon thai,17.1006,100.8374,24.689999999999998,96,100,0.44,TH,1722041774
271,katsuura,35.1333,140.3,27.970000000000027,86,100,3.2,JP,1722041775
272,rumphi,-11.0186,33.8575,12.470000000000027,36,0,1.63,MW,1722041777
273,happy valley-goose bay,53.3168,-60.3315,15.170000000000016,58,20,3.09,CA,1722041781
274,isangel,-19.55,169.2667,24.060000000000002,60,75,3.09,VU,1722041782
275,weligama,5.9667,80.4167,28.840000000000032,87,99,4.88,LK,1722041784
276,poxoreo,-15.8372,-54.3892,21.140000000000043,34,5,1.51,BR,1722041785
277,bac lieu,9.285,105.7244,27.24000000000001,85,100,3.67,VN,1722041786
278,borovskoy,53.8,64.15,12.879999999999995,82,100,8.72,KZ,1722041788
279,tolanaro,-25.0319,46.9987,18.04000000000002,88,40,2.06,MG,1722041789
280,colon,9.3592,-79.9014,24.390000000000043,90,100,1.79,PA,1722041790
281,manaus,-3.1019,-60.025,28.28000000000003,74,0,1.03,BR,1722041534
282,mukalla,14.5425,49.1242,28.420000000000016,74,22,2.31,YE,1722041792
283,colonia,50.9333,6.95,19.600000000000023,89,100,2.57,DE,1722041794
284,mount isa,-20.7333,139.5,19.870000000000005,56,100,4.63,AU,1722041796
285,yanam,16.7333,82.2167,24.510000000000048,94,100,3.62,IN,1722041797
286,quixere,-5.0742,-37.9886,24.720000000000027,60,10,4.07,BR,1722041798
287,rahimah,26.7079,50.0619,34.120000000000005,38,6,5.29,SA,1722041799
288,kavieng,-2.5744,150.7967,27.75,80,93,3.61,PG,1722041800
289,darnah,32.767,22.6367,26.33000000000004,75,0,7.0,LY,1722041713
290,palikir - national government center,6.9248,158.1611,31.470000000000027,79,100,5.14,FM,1722041802
291,barah,13.7,30.3667,24.55000000000001,82,100,9.82,SD,1722041804
292,barra de santo antonio,-9.4047,-35.5072,22.600000000000023,79,0,4.36,BR,1722041805
293,chak two hundred forty-nine thal development authority,31.1796,71.2095,36.98000000000002,38,0,6.11,PK,1722041806
294,linkou,45.3,130.2833,23.970000000000027,88,87,3.14,CN,1722041807
295,hithadhoo,-0.6,73.0833,28.890000000000043,74,71,4.95,MV,1722041808
296,masterton,-40.9597,175.6575,15.610000000000014,62,89,2.44,NZ,1722041809
297,grand-lahou,5.1367,-5.0242,23.629999999999995,94,99,3.73,CI,1722041810
298,zhelezinka,53.54,75.3072,19.410000000000025,77,88,4.27,KZ,1722041813
299,zhanibek,49.4167,46.85,16.939999999999998,57,0,4.09,KZ,1722041814
300,faya-largeau,17.9257,19.1043,35.98000000000002,31,100,3.54,TD,1722041815
301,chonchi,-42.6128,-73.8092,7.560000000000002,88,100,5.35,CL,1722041816
302,mpika,-11.8343,31.4529,11.54000000000002,28,0,1.75,ZM,1722041817
303,jerantut,3.936,102.3626,25.55000000000001,93,100,0.62,MY,1722041539
304,manokwari,-0.8667,134.0833,28.30000000000001,71,25,1.56,ID,1722041820
305,florence,43.7667,11.25,24.900000000000034,73,0,2.57,IT,1722041660
306,gaiman,-43.2897,-65.4929,8.830000000000041,35,7,9.11,AR,1722041822
307,kapuskasing,49.4169,-82.4331,23.05000000000001,56,100,3.09,CA,1722041823
308,nizhnesortymskiy,62.4397,71.7603,14.430000000000007,79,100,7.4,RU,1722041824
309,akureyri,65.6835,-18.0878,8.960000000000036,93,75,3.6,IS,1722041825
310,boali,4.8005,18.1275,22.260000000000048,93,100,1.28,CF,1722041827
311,newman,37.3138,-121.0208,37.99000000000001,27,0,2.24,US,1722041829
312,bodo,67.28,14.405,18.02000000000004,72,0,2.06,NO,1722041830
313,holma,9.9008,13.0567,21.680000000000007,91,100,1.46,NG,1722041831
314,eyl,7.9803,49.8164,25.150000000000034,77,43,11.03,SO,1722041832
315,jindabyne,-36.4167,148.6333,10.960000000000036,29,3,1.49,AU,1722041833
316,komatipoort,-25.4332,31.9548,12.810000000000002,65,1,0.84,ZA,1722041834
317,praia da vitoria,38.7333,-27.0667,24.140000000000043,78,20,4.34,PT,1722041836
318,'ain boucif,35.8912,3.1585,25.27000000000004,26,2,2.9,DZ,1722041837
319,nagqu,31.5,92.0,7.2000000000000455,93,100,1.9,CN,1722041838
320,tofol,5.3248,163.0078,28.410000000000025,77,100,5.39,FM,1722041839
321,lock haven,41.137,-77.4469,22.010000000000048,76,0,2.0,US,1722041840
322,carnarvon,-24.8667,113.6333,16.54000000000002,54,0,5.69,AU,1722041841
323,liwale,-9.7667,37.9333,15.300000000000011,97,4,0.67,TZ,1722041842
324,daru,-9.0763,143.2092,25.189999999999998,83,100,6.12,PG,1722041844
325,gaigeturi,33.4644,126.3183,29.03000000000003,84,75,1.03,KR,1722041845
326,papao,-17.75,-149.55,27.82000000000005,69,46,6.01,PF,1722041846
327,priozersk,61.0393,30.1291,18.939999999999998,87,9,2.3,RU,1722041847
328,douglas,41.3,-96.167,30.930000000000007,63,0,4.12,US,1722041623
329,thaba-tseka,-29.522,28.6084,0.3100000000000023,34,0,2.32,LS,1722041850
330,okha,53.5739,142.9478,22.29000000000002,69,48,3.79,RU,1722041851
331,el calafate,-50.3408,-72.2768,-0.9499999999999886,94,100,1.95,AR,1722041852
332,namibe,-15.1961,12.1522,15.450000000000045,90,11,3.55,AO,1722041853
333,quillota,-32.8833,-71.2667,11.010000000000048,79,98,0.84,CL,1722041689
334,puerto san jose,13.9256,-90.8244,28.129999999999995,77,9,2.23,GT,1722041855
335,kamaishi,39.2667,141.8833,20.390000000000043,100,100,2.71,JP,1722041856
336,caleta de carquin,-11.0925,-77.6267,16.83000000000004,81,19,4.65,PE,1722041858
337,hami,42.8,93.45,33.450000000000045,14,100,2.46,CN,1722041859
338,aligudarz,33.4006,49.6949,20.29000000000002,27,0,1.07,IR,1722041860
339,lihue,21.9789,-159.3672,27.77000000000004,65,75,6.69,US,1722041861
340,karratha,-20.7377,116.8463,18.53000000000003,26,0,9.0,AU,1722041862
341,santanyi,39.3546,3.1291,24.82000000000005,76,0,2.8,ES,1722041863
342,thinadhoo,0.5333,72.9333,28.960000000000036,75,99,3.89,MV,1722041864
343,champerico,14.3,-91.9167,31.30000000000001,72,86,2.16,GT,1722041866
344,eureka,40.8021,-124.1637,17.890000000000043,81,36,1.79,US,1722041861
345,ulladulla,-35.35,150.4667,16.980000000000018,39,64,3.08,AU,1722041868
346,laojunmiao,39.8333,97.7333,24.79000000000002,27,86,1.6,CN,1722041869
347,semirom,31.4167,51.5667,17.160000000000025,30,4,1.11,IR,1722041870
348,kaoma,-14.7833,24.8,11.939999999999998,27,0,0.95,ZM,1722041871
349,kyakhta,50.3508,106.4494,17.79000000000002,86,100,0.81,RU,1722041872
350,grenada,37.1882,-3.6067,24.950000000000045,47,0,0.0,ES,1722041873
351,broome,42.2506,-75.833,18.629999999999995,56,0,1.76,US,1722041875
352,umatilla,45.5001,-118.5014,24.29000000000002,18,0,3.41,US,1722041876
353,gniewkowo,52.8946,18.4079,19.370000000000005,81,100,2.36,PL,1722041772
354,chui,-33.6971,-53.4616,9.680000000000007,93,0,2.05,UY,1722041878
355,tralee,52.2704,-9.7026,12.129999999999995,96,100,2.36,IE,1722041881
356,crixas,-14.5489,-49.9692,21.54000000000002,27,1,1.53,BR,1722041883
357,haimen,23.1935,116.6142,28.939999999999998,93,100,8.54,CN,1722041885
358,salinopolis,-0.6136,-47.3561,26.08000000000004,82,6,5.89,BR,1722041886
359,callao,-12.0667,-77.15,17.460000000000036,82,100,3.6,PE,1722041887
360,pimentel,-6.8367,-79.9342,18.160000000000025,72,0,6.17,PE,1722041888
361,chauk,20.8833,94.8167,26.879999999999995,87,100,9.53,MM,1722041890
362,makoua,0.0069,15.6333,23.680000000000007,75,100,1.7,CG,1722041891
363,kushtia,23.9011,89.1221,28.970000000000027,87,100,5.04,BD,1722041892
364,veraval,20.9,70.3667,27.640000000000043,87,100,9.0,IN,1722041893
365,amungan,15.3652,119.9582,28.930000000000007,76,100,5.57,PH,1722041894
366,tsiombe,-25.3,45.4833,15.720000000000027,79,0,1.37,MG,1722041895
367,talitsa,56.8804,60.0213,11.300000000000011,98,100,6.17,RU,1722041896
368,luziania,-16.2525,-47.9503,21.83000000000004,47,0,1.84,BR,1722041897
369,polatli,39.5772,32.1413,17.850000000000023,75,0,4.03,TR,1722041899
370,tripoli,32.8752,13.1875,26.760000000000048,58,0,4.43,LY,1722041900
371,kibaha,-6.7667,38.9167,18.670000000000016,96,19,1.88,TZ,1722041901
372,kerikeri,-35.2268,173.9474,15.03000000000003,59,26,1.74,NZ,1722041902
373,mossel bay,-34.1831,22.146,12.580000000000041,81,0,3.28,ZA,1722041903
374,qamdo,31.1667,97.2333,9.460000000000036,88,100,1.33,CN,1722041904
375,saint-philippe,-21.3585,55.7679,19.77000000000004,69,0,0.69,RE,1722041905
376,enriquillo,17.9,-71.2333,26.0,85,100,4.96,DO,1722041907
377,neiafu,-18.65,-173.9833,25.379999999999995,69,40,5.66,TO,1722041908
378,baykal'sk,51.5058,104.1469,16.629999999999995,91,74,0.62,RU,1722041909
379,choibalsan,48.0667,114.5,16.870000000000005,98,100,3.8,MN,1722041910
380,kulhudhuffushi,6.6221,73.07,28.360000000000014,82,100,7.26,MV,1722041911
381,sitka,57.0531,-135.33,13.900000000000034,76,100,1.85,US,1722041912
382,uglegorsk,49.0833,142.0333,18.460000000000036,81,0,4.27,RU,1722041913
383,aromashevo,56.8602,68.6375,15.110000000000014,97,32,3.93,RU,1722041915
384,uturoa,-16.7333,-151.4333,25.189999999999998,70,45,6.15,PF,1722041916
385,laguna,38.421,-121.4238,36.450000000000045,22,0,7.72,US,1722041917
386,grand baie,-20.0182,57.5802,19.689999999999998,84,0,1.34,MU,1722041918
387,tvoroyri,61.5556,-6.8111,11.170000000000016,92,89,8.55,FO,1722041919
388,kapit,2.0167,112.9333,28.629999999999995,67,32,0.73,MY,1722041920
389,itamaraca,-7.7478,-34.8256,25.03000000000003,82,4,4.38,BR,1722041921
390,harlan,41.653,-95.3255,29.210000000000036,82,2,3.71,US,1722041922
391,chipinge,-20.1883,32.6236,12.430000000000007,56,0,1.56,ZW,1722041924
392,singkil,-7.9855,111.4161,25.960000000000036,73,9,3.05,ID,1722041925
393,kuta,-8.7233,115.1723,26.970000000000027,83,20,7.72,ID,1722041926
394,ca mau,9.1769,105.15,27.430000000000007,86,100,1.77,VN,1722041927
395,mitu,1.1983,-70.1733,22.460000000000036,96,25,0.19,CO,1722041928
396,pedro juan caballero,-22.5472,-55.7333,21.33000000000004,38,99,2.83,PY,1722041906
397,port moresby,-9.4431,147.1797,28.680000000000007,61,40,5.14,PG,1722041930
398,san matias,-16.3667,-58.4,26.860000000000014,31,1,2.38,BO,1722041932
399,tafuna,-14.3358,-170.72,27.629999999999995,78,5,7.77,AS,1722041933
400,antonio enes,-16.2325,39.9086,19.720000000000027,74,0,0.9,MZ,1722041934
401,bernay,49.1667,0.6667,16.710000000000036,95,95,1.68,FR,1722041935
402,lashio,22.9333,97.75,22.720000000000027,98,100,0.38,MM,1722041936
403,guaimaro,21.05,-77.35,20.379999999999995,87,100,2.12,CU,1722041937
404,concepcion,-36.827,-73.0498,7.890000000000043,71,0,5.66,CL,1722041664
405,mammoth lakes,37.6485,-118.9721,24.400000000000034,27,0,10.8,US,1722041939
406,charters towers,-20.1,146.2667,23.03000000000003,54,83,4.11,AU,1722041941
407,lionel town,17.8101,-77.2406,31.939999999999998,73,65,5.02,JM,1722041942
408,le moule,16.3332,-61.3473,28.02000000000004,80,3,6.16,GP,1722041943
409,al kharijah,25.4514,30.5464,29.970000000000027,29,68,4.09,EG,1722041944
410,lata,40.1629,-8.3327,17.82000000000005,94,100,1.31,PT,1722041945
411,pingzhuang,42.0372,119.2889,25.58000000000004,76,7,4.37,CN,1722041946
412,kisaran,2.9845,99.6158,25.620000000000005,82,40,1.74,ID,1722041947
413,kismayo,-0.3582,42.5454,24.410000000000025,83,28,6.92,SO,1722041948
414,ribeira brava,32.65,-17.0667,23.890000000000043,84,2,1.92,PT,1722041950
415,madinat ash shamal,26.1293,51.2009,34.57000000000005,56,6,3.85,QA,1722041951
416,madang,-5.2246,145.7966,26.24000000000001,90,100,2.26,PG,1722041952
417,zyryanskoye,56.8306,86.6258,22.689999999999998,72,23,4.1,RU,1722041954
418,kattivakkam,13.2167,80.3167,29.52000000000004,76,100,6.97,IN,1722041955
419,linhares,-19.3911,-40.0722,20.189999999999998,88,0,1.83,BR,1722041939
420,duluth,46.7833,-92.1066,28.32000000000005,72,100,5.66,US,1722041844
421,columbus,39.9612,-82.9988,23.560000000000002,56,0,1.54,US,1722041824
422,bubaque,11.2833,-15.8333,26.80000000000001,84,100,6.71,GW,1722041960
423,santana,-0.0583,-51.1817,29.100000000000023,74,40,3.09,BR,1722041961
424,kolokani,13.5728,-8.0339,23.730000000000018,90,100,3.08,ML,1722041962
425,brisas de zicatela,15.8369,-97.0419,28.49000000000001,77,65,2.47,MX,1722041964
426,as sulayyil,20.4607,45.5779,29.140000000000043,16,74,6.39,SA,1722041965
427,uberaba,-19.7483,-47.9319,23.32000000000005,31,0,2.06,BR,1722041834
428,horta,38.5333,-28.6333,22.230000000000018,87,30,1.79,PT,1722041968
429,quellon,-43.1167,-73.6167,7.010000000000048,84,86,8.26,CL,1722041790
430,vozhega,60.4725,40.2213,15.350000000000023,63,100,1.85,RU,1722041970
431,mugia,43.1041,-9.2179,20.650000000000034,90,100,6.88,ES,1722041971
432,lewiston orchards,46.3804,-116.9754,29.950000000000045,17,0,3.09,US,1722041972
433,smolenskoye,52.3044,85.0781,22.79000000000002,76,0,1.1,RU,1722041973
434,salalah,17.0151,54.0924,24.28000000000003,97,100,4.36,OM,1722041975
435,moab,38.5733,-109.5498,37.03000000000003,18,10,2.06,US,1722041976
436,namtsy,62.7161,129.6658,16.33000000000004,90,100,3.14,RU,1722041977
437,copala,16.65,-98.9833,28.58000000000004,75,100,3.85,MX,1722041978
438,kruisfontein,-34.0033,24.7314,7.710000000000036,91,0,2.55,ZA,1722041979
439,esqueda,30.7167,-109.5833,28.99000000000001,40,25,3.88,MX,1722041981
440,mount pearl,47.5166,-52.7813,16.850000000000023,94,75,3.09,CA,1722041982
441,detroit lakes,46.8172,-95.8453,28.03000000000003,81,0,4.63,US,1722041703
442,quepos,9.4236,-84.1652,25.879999999999995,88,99,1.25,CR,1722041985
443,king city,36.2127,-121.126,30.140000000000043,21,0,5.27,US,1722041987
444,gadzhiyevo,69.2551,33.3362,16.060000000000002,60,8,5.04,RU,1722041988
445,gaogou,34.0175,119.1886,27.5,91,100,7.81,CN,1722041989
446,ciudad barrios,13.7667,-88.2667,21.24000000000001,88,99,1.51,SV,1722041990
447,summerlin south,36.1027,-115.3811,40.68000000000001,16,0,9.56,US,1722041991
448,chos malal,-37.3781,-70.2709,6.25,64,0,3.16,AR,1722041992
449,loiza,18.4313,-65.8802,30.0,84,40,6.69,PR,1722041994
450,new norfolk,-42.7826,147.0587,11.07000000000005,69,100,1.67,AU,1722041995
451,tamanrasset,22.785,5.5228,24.950000000000045,19,0,1.03,DZ,1722041996
452,nagato,34.3833,131.2,30.670000000000016,73,100,7.56,JP,1722041822
453,nova vicosa,-17.8919,-39.3719,22.79000000000002,78,64,2.68,BR,1722041998
454,san isidro de curuguaty,-24.5167,-55.7,23.730000000000018,42,98,2.51,PY,1722041999
455,kone,-21.0595,164.8658,23.210000000000036,51,88,3.05,NC,1722042000
456,tekeli,44.83,78.8239,24.390000000000043,38,39,4.18,KZ,1722042002
457,la villa del rosario,10.3258,-72.3134,25.54000000000002,86,100,5.0,VE,1722042005
458,ohangaron,40.9064,69.6383,26.08000000000004,39,0,1.7,UZ,1722042006
459,igrim,63.1906,64.4162,12.150000000000034,68,100,4.29,RU,1722042008
460,sultanah,24.4926,39.5857,32.25,23,0,2.57,SA,1722042009
461,altai,46.3722,96.2583,20.680000000000007,33,1,2.36,MN,1722042010
462,piacabucu,-10.4056,-36.4344,22.640000000000043,80,2,2.85,BR,1722042012
463,manturovo,58.3353,44.7619,13.930000000000007,72,100,2.06,RU,1722042013
464,mopti,14.6667,-4.0,29.890000000000043,61,10,6.93,ML,1722042014
465,dossor,47.5272,52.9811,21.960000000000036,41,63,5.33,KZ,1722042017
466,penzance,50.1186,-5.5371,13.379999999999995,83,100,5.02,GB,1722042018
467,troitsko-pechorsk,62.7084,56.1964,9.470000000000027,71,75,2.16,RU,1722042019
468,anisoc,1.8658,10.7689,20.870000000000005,99,89,0.79,GQ,1722042020
469,srikakulam,18.3,83.9,25.99000000000001,93,100,4.19,IN,1722042021
470,zdvinsk,54.7021,78.661,22.54000000000002,77,100,4.16,RU,1722042022
471,campbell river,50.0163,-125.2446,24.210000000000036,38,75,3.09,CA,1722041984
472,minas de matahambre,22.5887,-83.9447,25.950000000000045,85,90,1.04,CU,1722042025
473,turpan,42.9333,89.1667,38.51000000000005,17,86,2.35,CN,1722041949
474,margate,51.3813,1.3862,14.830000000000041,84,88,4.67,GB,1722042027
475,minas de marcona,-15.2119,-75.1103,9.470000000000027,90,67,5.51,PE,1722042007
476,manoc-manoc,11.9416,121.9428,28.660000000000025,76,100,3.18,PH,1722042029
477,holualoa,19.6228,-155.9522,25.860000000000014,72,73,2.11,US,1722042030
478,vadso,70.0744,29.7487,18.49000000000001,82,75,1.54,NO,1722042032
479,magadan,59.5667,150.8,15.490000000000009,49,0,0.63,RU,1722042033
480,lalibela,12.0333,39.0333,15.200000000000045,87,100,0.97,ET,1722042034
481,big bend,-26.8167,31.9333,14.610000000000014,94,0,0.69,SZ,1722042035
482,urucui,-7.2294,-44.5561,22.620000000000005,36,0,1.98,BR,1722042036
483,akhuryan,40.78,43.9003,15.840000000000032,82,75,0.51,AM,1722042037
484,tol'yatti,53.5303,49.3461,15.850000000000023,68,100,5.02,RU,1722042038
485,huazhou,21.6333,110.5833,29.150000000000034,86,100,2.93,CN,1722042040
486,hammerfest,70.6634,23.6821,20.25,73,20,3.6,NO,1722042041
487,kaihua,23.3687,104.28,23.640000000000043,74,100,0.5,CN,1722042042
488,astoria,46.1879,-123.8313,21.439999999999998,74,0,8.75,US,1722042043
489,de aar,-30.6497,24.0123,5.689999999999998,56,0,2.31,ZA,1722042044
490,buurhakaba,2.8026,44.0781,22.30000000000001,87,81,4.98,SO,1722042045
491,taichung,24.1469,120.6839,30.700000000000045,75,75,4.12,TW,1722041952
492,kayangel,8.0823,134.7173,28.53000000000003,81,100,9.18,PW,1722042047
493,broken hill,-31.95,141.4333,13.150000000000034,36,99,5.94,AU,1722042049
494,essaouira,31.5125,-9.77,21.720000000000027,83,0,4.12,MA,1722042050
495,tougan,13.0667,-3.0667,27.170000000000016,74,4,4.22,BF,1722042051
496,auki,-8.7676,160.7034,27.55000000000001,80,100,4.82,SB,1722042052
497,kapa'a,22.0752,-159.319,28.180000000000007,71,75,6.69,US,1722042053
498,sept-iles,50.2001,-66.3821,17.29000000000002,69,20,1.54,CA,1722042054
499,celestun,20.8667,-90.4,28.870000000000005,76,76,5.92,MX,1722042055
500,tver,56.8619,35.8931,15.689999999999998,65,67,2.21,RU,1722042056
501,east london,-33.0153,27.9116,15.670000000000016,70,6,2.26,ZA,1722042059
502,canutama,-6.5339,-64.3831,26.730000000000018,46,44,1.29,BR,1722042060
503,los aquijes,-14.0967,-75.6908,18.27000000000004,64,0,0.16,PE,1722042061
504,shizuishan,39.2333,106.7694,29.860000000000014,23,100,4.62,CN,1722042062
505,northam,51.0333,-4.2167,13.700000000000045,93,0,2.66,GB,1722042063
506,roma,43.2128,-75.4557,19.08000000000004,63,0,2.57,US,1722042064
507,fuqing,25.725,119.3794,26.870000000000005,96,100,6.7,CN,1722042066
508,ocean shores,46.9737,-124.1563,18.0,83,0,5.66,US,1722042067
509,nadi,-17.8,177.4167,25.0,61,40,7.72,FJ,1722042068
510,hampton bays,40.869,-72.5176,25.04000000000002,76,40,3.58,US,1722041860
511,cole harbour,44.6724,-63.4751,18.660000000000025,88,0,6.17,CA,1722042070
512,el granada,37.5027,-122.4694,22.310000000000002,73,40,8.23,US,1722042071
513,zhezqazghan,47.7833,67.7667,16.32000000000005,59,0,4.0,KZ,1722042072
514,beipiao,41.7919,120.7792,26.970000000000027,78,96,4.88,CN,1722042077
515,korla,41.7597,86.1469,30.150000000000034,26,0,3.18,CN,1722042078
516,zambezi,-13.5432,23.1047,12.230000000000018,26,0,1.57,ZM,1722042079
517,reggane,26.7158,0.1714,34.39000000000004,12,0,5.15,DZ,1722042080
518,vila velha,-20.3297,-40.2925,23.30000000000001,82,0,3.6,BR,1722042011
519,yellapur,14.9667,74.7167,21.920000000000016,92,100,3.64,IN,1722042084
520,koungheul,13.9833,-14.8,26.629999999999995,82,77,3.26,SN,1722042086
521,nabire,-3.3667,135.4833,29.82000000000005,64,67,1.18,ID,1722042087
522,partenit,44.578,34.3446,22.170000000000016,70,100,6.79,UA,1722042088
523,ormara,25.2088,64.6357,28.30000000000001,84,100,3.62,PK,1722042089
524,carutapera,-1.195,-46.02,24.650000000000034,80,16,2.71,BR,1722042090
525,north platte,41.1239,-100.7654,31.25,40,0,5.81,US,1722042013
526,myitkyina,25.3833,97.4,25.379999999999995,99,99,0.14,MM,1722042092
527,sao miguel do araguaia,-13.275,-50.1628,23.900000000000034,33,1,2.2,BR,1722042095
528,bahia honda,22.9036,-83.1592,27.390000000000043,82,98,2.32,CU,1722042096
529,tadine,-21.55,167.8833,21.129999999999995,63,98,5.09,NC,1722042097
530,arauquita,7.0292,-71.4281,22.730000000000018,98,100,0.55,CO,1722042098
531,inhambane,-23.865,35.3833,19.660000000000025,81,12,3.37,MZ,1722042099
532,mathba,22.2855,89.9629,28.78000000000003,86,100,2.39,BD,1722042100
533,la ronge,55.1001,-105.2842,16.140000000000043,77,100,5.66,CA,1722042101
534,cabugao,17.7931,120.4578,30.5,76,100,5.48,PH,1722042103
535,talcahuano,-36.7167,-73.1167,7.82000000000005,71,0,5.66,CL,1722042104
536,greymouth,-42.4667,171.2,12.810000000000002,84,100,2.34,NZ,1722042105
537,jaisinghnagar,23.7,81.3833,25.420000000000016,94,100,2.93,IN,1722042106
538,tindouf,27.6711,-8.1474,36.25,15,20,4.63,DZ,1722042107
539,coari,-4.085,-63.1414,29.02000000000004,51,100,0.73,BR,1722042108
540,najran,17.4924,44.1277,29.360000000000014,41,100,3.73,SA,1722042109
541,pontchateau,47.4333,-2.0833,18.360000000000014,94,0,1.03,FR,1722042111
542,lewistown,40.5992,-77.5714,22.410000000000025,86,0,0.0,US,1722042112
543,winnipeg,49.8844,-97.147,23.939999999999998,77,75,4.12,CA,1722041958
544,robertsport,6.7533,-11.3686,24.430000000000007,86,100,5.74,LR,1722042114
545,pariaman,-0.619,100.12,25.03000000000003,73,54,1.61,ID,1722042115
546,luba,3.4568,8.5547,24.939999999999998,87,100,3.66,GQ,1722042116
547,huarmey,-10.0681,-78.1522,16.920000000000016,85,4,4.45,PE,1722042117
548,xiva,41.3783,60.3639,21.99000000000001,23,9,5.85,UZ,1722042119
549,tazacorte,28.629,-17.9293,21.54000000000002,83,75,5.66,ES,1722042121
550,isanlu-itedoijowa,8.2667,5.8333,21.810000000000002,95,100,2.97,NG,1722042122
551,les cayes,18.2,-73.75,27.890000000000043,82,100,3.25,HT,1722042123
552,timaru,-44.4,171.25,14.830000000000041,60,75,0.72,NZ,1722042124
553,yeniseysk,58.4497,92.1703,22.860000000000014,62,88,2.83,RU,1722042125
554,salinas,36.6777,-121.6555,23.450000000000045,75,75,5.14,US,1722042126
555,launceston,-41.45,147.1667,9.800000000000011,87,100,5.66,AU,1722042128
556,sungai penuh,-2.0833,101.3833,22.010000000000048,76,31,0.46,ID,1722042129
557,sumbe,-11.2061,13.8437,19.82000000000005,89,63,3.06,AO,1722042130
558,diplo,24.4667,69.584,28.58000000000004,79,100,7.17,PK,1722042131
559,paita,-5.0892,-81.1144,17.650000000000034,83,0,6.68,PE,1722042132
560,dolbeau-mistassini,48.8763,-72.212,20.360000000000014,54,9,3.5,CA,1722042133
561,edson,53.5835,-116.4356,15.080000000000041,67,100,6.17,CA,1722042108
562,kemin,42.7846,75.6892,23.74000000000001,44,5,0.96,KG,1722042135
563,srivardhan,18.0333,73.0167,27.27000000000004,87,100,7.99,IN,1722042137
564,tabas,33.5959,56.9244,32.32000000000005,22,0,0.96,IR,1722042138
565,homer,59.6425,-151.5483,14.870000000000005,69,72,5.36,US,1722042139
566,mahibadhoo,3.7833,72.9667,28.57000000000005,76,99,3.3,MV,1722042140
567,tashtyp,52.7939,89.8983,20.340000000000032,90,69,0.19,RU,1722042141
568,vattalkundu,10.1667,77.7667,25.260000000000048,72,100,0.93,IN,1722042142
569,aioun,16.6614,-9.6149,32.27000000000004,51,98,5.88,MR,1722042143
