City_ID,City,Lat,Lng,Max Temp,Humidity,Cloudiness,Wind Speed,Country,Date
0,ivdel',60.6911,60.4206,12.870000000000005,95,20,1.15,RU,1722369765
1,laguna,38.421,-121.4238,31.760000000000048,47,0,2.57,US,1722369767
2,nova sintra,14.8667,-24.7167,25.0,78,100,5.44,CV,1722369768
3,avarua,-21.2078,-159.775,21.03000000000003,56,75,3.09,CK,1722369769
4,tura,25.5198,90.2201,24.840000000000032,94,91,1.82,IN,1722369770
5,port elizabeth,-33.918,25.5701,13.390000000000043,68,0,8.23,ZA,1722369771
6,blackmans bay,-43.0167,147.3167,3.07000000000005,93,11,1.83,AU,1722369707
7,waitangi,-43.9535,-176.5597,7.1200000000000045,98,100,2.24,NZ,1722369713
8,codrington,-38.2667,141.9667,4.689999999999998,91,78,3.1,AU,1722369775
9,sooke,48.3746,-123.7276,18.650000000000034,93,100,2.36,CA,1722369776
10,ola,59.5833,151.2833,12.140000000000043,75,99,0.8,RU,1722369777
11,susuman,62.7833,148.1667,8.140000000000043,86,100,4.27,RU,1722369779
12,toppenish,46.3774,-120.3087,29.640000000000043,27,3,1.39,US,1722369780
13,olonkinbyen,70.9221,-8.7187,5.460000000000036,100,100,4.44,SJ,1722369781
14,yellowknife,62.456,-114.3525,18.29000000000002,78,75,6.17,CA,1722369668
15,aral,40.5156,81.2636,33.08000000000004,21,99,6.93,CN,1722369784
16,toledo,39.8333,-4.0,31.83000000000004,23,0,4.83,ES,1722369514
17,margaret river,-33.95,115.0667,15.160000000000025,86,35,6.1,AU,1722369786
18,albany,42.6001,-73.9662,32.360000000000014,61,97,1.34,US,1722369641
19,puerto natales,-51.7236,-72.4875,5.25,87,100,6.17,CL,1722369691
20,aykhal,66.0,111.5,5.980000000000018,76,12,2.32,RU,1722369790
21,iqaluit,63.7506,-68.5145,7.850000000000023,75,75,3.09,CA,1722369614
22,puerto ayora,-0.7393,-90.3518,24.980000000000018,96,97,3.58,EC,1722369723
23,rio grande,-32.035,-52.0986,14.060000000000002,75,96,3.94,BR,1722369793
24,utrik,11.2278,169.8474,27.970000000000027,80,49,5.77,MH,1722369794
25,port-aux-francais,-49.35,70.2167,3.430000000000007,95,100,11.89,TF,1722369469
26,adamstown,-25.066,-130.1015,21.900000000000034,84,51,8.65,PN,1722369727
27,nouadhibou,20.931,-17.0347,21.99000000000001,83,6,8.23,MR,1722369798
28,thinadhoo,0.5333,72.9333,28.840000000000032,73,100,2.65,MV,1722369799
29,alice town,25.7167,-79.3,29.090000000000032,71,100,3.38,BS,1722369801
30,antsiranana,-12.2787,49.2917,22.510000000000048,67,7,6.61,MG,1722369802
31,punta arenas,-53.15,-70.9167,3.0600000000000023,75,75,5.14,CL,1722369703
32,columbus,39.9612,-82.9988,31.470000000000027,57,75,5.14,US,1722369331
33,magadan,59.5667,150.8,12.04000000000002,72,94,1.79,RU,1722369805
34,pisco,-13.7,-76.2167,18.03000000000003,77,0,4.63,PE,1722369807
35,lively,46.4334,-81.1498,26.510000000000048,95,100,0.11,CA,1722369808
36,ta`u,-14.2336,-169.5144,25.180000000000007,61,13,11.67,AS,1722369809
37,hadibu,12.65,54.0333,25.860000000000014,83,100,8.11,YE,1722369810
38,port mathurin,-19.6833,63.4167,22.439999999999998,73,26,7.72,MU,1722369812
39,sasebo,33.1592,129.7228,28.890000000000043,97,11,1.06,JP,1722369813
40,nyala,12.05,24.8833,24.77000000000004,78,63,5.21,SD,1722369814
41,canutama,-6.5339,-64.3831,38.94,19,15,1.45,BR,1722369725
42,tannum sands,-23.9504,151.3693,12.080000000000041,76,50,2.06,AU,1722369816
43,college,64.8569,-147.8028,13.03000000000003,82,100,0.89,US,1722369703
44,thompson,55.7435,-97.8558,30.090000000000032,45,75,6.17,CA,1722369732
45,ribeira brava,32.65,-17.0667,25.560000000000002,81,89,1.45,PT,1722369820
46,sarangani,5.4033,125.4636,28.350000000000023,74,40,2.39,PH,1722369821
47,klyuchi,52.2667,79.1667,19.629999999999995,59,54,2.06,RU,1722369822
48,kosh-agach,50.0,88.6667,14.580000000000041,60,100,1.05,RU,1722369823
49,kruisfontein,-34.0033,24.7314,12.160000000000025,65,7,6.72,ZA,1722369825
50,rockport,28.0206,-97.0544,33.03000000000003,84,40,6.17,US,1722369677
51,selfoss,63.9331,-20.9971,10.900000000000034,74,99,4.43,IS,1722369827
52,jagtial,18.8,78.9333,25.33000000000004,90,100,3.71,IN,1722369828
53,tralee,52.2704,-9.7026,14.379999999999995,90,63,1.54,IE,1722369829
54,colonia,50.9333,6.95,26.640000000000043,65,0,1.54,DE,1722369640
55,papatowai,-46.5619,169.4708,4.7900000000000205,72,98,4.91,NZ,1722369700
56,ribeira grande,38.5167,-28.7,25.99000000000001,78,20,6.17,PT,1722369834
57,qamdo,31.1667,97.2333,4.510000000000048,74,5,1.3,CN,1722369835
58,maintirano,-18.0667,44.0167,22.730000000000018,72,0,4.7,MG,1722369837
59,peace river,56.2501,-117.286,23.170000000000016,43,75,7.2,CA,1722369838
60,brunico,46.7958,11.9364,20.189999999999998,67,9,0.89,IT,1722369839
61,nar'yan-mar,67.6713,53.087,13.360000000000014,88,100,4.43,RU,1722369740
62,longyearbyen,78.2186,15.6401,9.910000000000025,87,75,3.09,SJ,1722369843
63,grytviken,-54.2811,-36.5092,-3.5600000000000023,87,82,2.34,GS,1722369845
64,ulsteinvik,62.3432,5.8487,15.07000000000005,78,98,4.47,NO,1722369846
65,kuala tungkal,-0.8167,103.4667,25.150000000000034,88,100,3.38,ID,1722369847
66,toulepleu guere,6.574,-8.4259,21.660000000000025,99,63,1.34,CI,1722369848
67,georgetown,5.4112,100.3354,28.960000000000036,83,20,1.54,MY,1722369733
68,pursat,12.3333,103.6667,22.150000000000034,85,100,1.24,KH,1722369850
69,iskateley,67.6803,53.1512,13.460000000000036,87,100,4.53,RU,1722369852
70,nadym,65.5333,72.5167,16.82000000000005,84,100,1.96,RU,1722369729
71,bac lieu,9.285,105.7244,26.170000000000016,87,99,2.92,VN,1722369855
72,hermanus,-34.4187,19.2345,9.330000000000041,67,0,1.66,ZA,1722369856
73,ha tien,10.3833,104.4833,27.0,81,100,4.28,VN,1722369857
74,aasiaat,68.7098,-52.8699,3.6899999999999977,88,79,3.08,GL,1722369859
75,walvis bay,-22.9575,14.5053,11.720000000000027,82,0,6.28,NA,1722369860
76,porto murtinho,-21.6989,-57.8825,28.660000000000025,41,17,0.65,BR,1722369861
77,happy valley-goose bay,53.3168,-60.3315,22.170000000000016,64,75,8.23,CA,1722369862
78,edinburgh of the seven seas,-37.0676,-12.3116,14.850000000000023,90,73,15.65,SH,1722369696
79,anadyr,64.75,177.4833,13.28000000000003,76,0,6.0,RU,1722369864
80,oltinko'l,40.8011,72.1634,29.980000000000018,20,45,2.63,UZ,1722369866
81,vilyuchinsk,52.9306,158.4028,12.150000000000034,92,100,0.9,RU,1722369867
82,ust-nera,64.5667,143.2,5.050000000000011,99,100,3.64,RU,1722369868
83,mejit,10.2753,170.8646,27.960000000000036,81,82,6.81,MH,1722369869
84,navarre,30.4016,-86.8636,34.170000000000016,76,88,0.45,US,1722369870
85,skopin,53.8249,39.5505,13.850000000000023,93,51,2.18,RU,1722369872
86,malango,-2.9627,119.9001,18.360000000000014,100,82,0.74,ID,1722369873
87,tomah,43.9786,-90.504,30.810000000000002,58,20,4.63,US,1722369874
88,bethel,41.3712,-73.414,30.57000000000005,68,20,6.17,US,1722369809
89,port lincoln,-34.7333,135.8667,10.189999999999998,52,82,4.8,AU,1722369877
90,rantauprapat,2.1,99.8333,23.28000000000003,97,100,0.65,ID,1722369879
91,qaqortoq,60.7167,-46.0333,9.689999999999998,46,0,14.91,GL,1722369880
92,lebu,-37.6167,-73.65,12.950000000000045,50,100,4.9,CL,1722369702
93,kailua-kona,19.6406,-155.9956,26.650000000000034,78,100,0.45,US,1722369671
94,sitka,57.0531,-135.33,13.939999999999998,88,100,3.09,US,1722369887
95,magong,23.5654,119.5863,28.390000000000043,85,48,6.37,TW,1722369889
96,ingeniero jacobacci,-41.3427,-69.5448,6.82000000000005,38,100,0.58,AR,1722369890
97,acapulco de juarez,16.8634,-99.8901,29.900000000000034,74,100,1.54,MX,1722369891
98,wailua homesteads,22.0669,-159.378,25.439999999999998,79,100,7.2,US,1722369892
99,sabang,5.8933,95.3214,29.07000000000005,72,100,7.74,ID,1722369895
100,yerofey pavlovich,53.9667,121.9667,16.840000000000032,96,100,1.46,RU,1722369896
101,manokwari,-0.8667,134.0833,25.720000000000027,80,100,1.49,ID,1722369897
102,ocos,14.5094,-92.1933,33.10000000000002,78,100,4.29,GT,1722369899
103,west island,-12.1568,96.8225,26.99000000000001,74,40,3.6,CC,1722369900
104,cidreira,-30.1811,-50.2056,14.800000000000011,68,35,5.46,BR,1722369901
105,bajina basta,43.9708,19.5675,16.970000000000027,50,0,0.71,RS,1722369902
106,st. john's,47.5649,-52.7093,28.660000000000025,67,75,9.77,CA,1722369617
107,dudinka,69.4058,86.1778,17.090000000000032,53,8,4.95,RU,1722369733
108,lihue,21.9789,-159.3672,25.200000000000045,84,100,6.24,US,1722369693
109,inyati,-19.6756,28.8469,14.730000000000018,20,0,1.94,ZW,1722369907
110,luderitz,-26.6481,15.1594,12.220000000000027,78,0,7.86,NA,1722369909
111,minas de marcona,-15.2119,-75.1103,19.27000000000004,46,0,4.59,PE,1722369910
112,kudahuvadhoo,2.6708,72.8944,28.54000000000002,77,100,4.06,MV,1722369912
113,chernyshevskiy,63.0128,112.4714,5.680000000000007,87,0,2.21,RU,1722369913
114,dickinson,29.4608,-95.0513,35.09000000000003,69,75,5.14,US,1722369752
115,tozkhurmato,34.8905,44.6299,36.83000000000004,15,0,4.05,IQ,1722369915
116,keflavik,64.0049,-22.5624,10.950000000000045,76,75,7.2,IS,1722369709
117,kismayo,-0.3582,42.5454,24.79000000000002,85,87,7.05,SO,1722369918
118,tiksi,71.6872,128.8694,2.170000000000016,93,100,2.81,RU,1722369919
119,ad dilam,23.9915,47.1627,36.23000000000002,12,16,3.47,SA,1722369920
120,aleg,17.0481,-13.9209,35.77000000000004,29,97,5.34,MR,1722369921
121,kokopo,-4.352,152.2633,24.850000000000023,86,22,3.99,PG,1722369922
122,coquimbo,-29.9533,-71.3436,13.850000000000023,82,100,3.09,CL,1722369923
123,dalbandin,28.8947,64.4101,32.48000000000002,40,100,1.88,PK,1722369838
124,ushuaia,-54.8,-68.3,1.8100000000000023,55,0,2.57,AR,1722369909
125,isafjordur,66.0755,-23.124,10.020000000000039,87,40,3.09,IS,1722369739
126,voskresenskoye,56.8381,45.4317,13.920000000000016,93,81,2.34,RU,1722369928
127,vetluzhskiy,58.3902,45.4654,14.760000000000048,79,100,1.78,RU,1722369930
128,touros,-5.1989,-35.4608,25.460000000000036,81,5,7.17,BR,1722369931
129,lompoc,34.6391,-120.4579,30.08000000000004,68,0,6.69,US,1722369932
130,tawau,4.2498,117.8871,25.07000000000005,94,16,2.62,MY,1722369933
131,cruzeiro do sul,-29.5128,-51.9853,15.840000000000032,83,100,0.65,BR,1722369688
132,carnarvon,-24.8667,113.6333,17.920000000000016,88,0,3.86,AU,1722369936
133,hawaiian paradise park,19.5933,-154.9731,23.83000000000004,95,100,2.06,US,1722369937
134,linares,-35.85,-71.6,13.32000000000005,66,100,2.2,CL,1722369938
135,cheremkhovo,53.1561,103.0675,17.28000000000003,88,95,2.43,RU,1722369939
136,karratha,-20.7377,116.8463,21.57000000000005,77,50,3.9,AU,1722369940
137,severo-yeniseyskiy,60.3725,93.0408,14.470000000000027,95,100,0.79,RU,1722369942
138,villa emilio carranza,19.9667,-96.6,30.83000000000004,66,100,7.72,MX,1722369943
139,ginir,7.1333,40.7,16.110000000000014,83,38,4.39,ET,1722369944
140,malvan,16.0667,73.4667,27.090000000000032,89,100,7.54,IN,1722369945
141,aktau,43.65,51.2,20.32000000000005,58,0,2.86,KZ,1722369946
142,fort bragg,35.139,-79.006,32.89000000000004,65,75,5.14,US,1722369948
143,la ronge,55.1001,-105.2842,20.140000000000043,64,75,4.12,CA,1722369718
144,brandon,27.9378,-82.2859,35.700000000000045,64,40,2.68,US,1722369950
145,itoman,26.1247,127.6694,29.210000000000036,89,20,3.09,JP,1722369951
146,shahrak,34.1074,64.3052,18.640000000000043,39,28,1.48,AF,1722369952
147,sao joao da barra,-21.6403,-41.0511,23.05000000000001,82,49,8.89,BR,1722369953
148,arteche,12.2645,125.4048,24.710000000000036,93,8,1.31,PH,1722369955
149,kodiak,57.79,-152.4072,16.730000000000018,45,0,10.8,US,1722369956
150,vila velha,-20.3297,-40.2925,24.970000000000027,81,20,9.26,BR,1722369666
151,saint-francois,46.4154,3.9054,27.689999999999998,81,100,1.54,FR,1722369958
152,fruita,39.1589,-108.729,36.64000000000004,6,0,6.69,US,1722369960
153,the dalles,45.5946,-121.1787,28.460000000000036,51,48,8.23,US,1722369961
154,jamestown,42.097,-79.2353,26.80000000000001,73,75,4.63,US,1722369962
155,camacupa,-12.0167,17.4833,18.77000000000004,18,16,1.72,AO,1722369963
156,pasuquin,18.3328,120.6177,25.970000000000027,94,75,2.06,PH,1722369964
157,taltal,-25.4,-70.4833,16.32000000000005,69,28,2.93,CL,1722369965
158,grand falls-windsor,48.9332,-55.6649,31.950000000000045,54,32,4.49,CA,1722369967
159,kopargaon,19.8833,74.4833,24.05000000000001,87,100,1.98,IN,1722369968
160,christchurch,-43.5333,172.6333,4.390000000000043,87,75,3.09,NZ,1722369705
161,sao jose da coroa grande,-8.8978,-35.1478,24.629999999999995,82,8,5.08,BR,1722369970
162,jatai,-17.8814,-51.7144,29.610000000000014,20,1,2.38,BR,1722369828
163,luganville,-15.5333,167.1667,24.090000000000032,86,98,4.37,VU,1722369972
164,sumy,50.9216,34.8003,16.370000000000005,76,8,3.07,UA,1722369974
165,wanxian,30.8039,108.3897,24.0,96,100,0.29,CN,1722369976
166,puerto aysen,-45.4,-72.7,5.110000000000014,100,100,0.58,CL,1722369977
167,morteros,-30.7116,-61.9986,17.79000000000002,35,98,5.08,AR,1722369978
168,shache,38.4167,77.2406,34.200000000000045,17,100,6.3,CN,1722369980
169,kirakira,-10.4544,161.9205,25.82000000000005,84,94,4.95,SB,1722369981
170,el granada,37.5027,-122.4694,26.04000000000002,76,40,6.17,US,1722369982
171,levuka,50.1834,-105.4011,28.850000000000023,34,75,8.75,CA,1722369983
172,teofilo otoni,-17.8575,-41.5053,27.99000000000001,31,18,3.69,BR,1722369854
173,sao felix do xingu,-6.6447,-51.995,36.59000000000003,19,0,1.92,BR,1722369972
174,villa bruzual,9.3328,-69.1208,26.58000000000004,90,100,3.21,VE,1722369987
175,choibalsan,48.0667,114.5,19.310000000000002,77,100,2.31,MN,1722369988
176,bilibino,68.0546,166.4372,5.350000000000023,87,100,0.84,RU,1722369750
177,rikaze,29.25,88.8833,13.960000000000036,36,0,1.1,CN,1722369990
178,constantia,44.1833,28.65,22.610000000000014,52,0,7.02,RO,1722369845
179,saipan,15.1355,145.701,27.390000000000043,89,20,2.06,MP,1722369993
180,taoudenni,22.6783,-3.9836,43.02000000000004,13,87,4.37,ML,1722369994
181,petropavlovsk-kamchatsky,53.0452,158.6483,11.330000000000041,100,75,2.0,RU,1722369715
182,islamabad,33.7104,73.1338,27.689999999999998,86,72,1.59,PK,1722369997
183,hasaki,35.7333,140.8333,27.220000000000027,91,100,0.4,JP,1722369999
184,dudhi,24.2167,83.25,28.360000000000014,80,98,2.73,IN,1722370001
185,paka,4.6374,103.4368,25.54000000000002,90,65,2.21,MY,1722370002
186,bredasdorp,-34.5322,20.0403,7.53000000000003,77,6,1.65,ZA,1722370004
187,nabire,-3.3667,135.4833,24.700000000000045,94,99,1.23,ID,1722370005
188,tazovsky,67.4667,78.7,15.300000000000011,99,100,2.49,RU,1722370006
189,remire-montjoly,4.9167,-52.2667,31.02000000000004,70,0,5.66,GF,1722370007
190,mongo,12.1844,18.693,25.32000000000005,82,96,0.73,TD,1722370008
191,badger,64.8,-147.5333,12.980000000000018,80,99,2.61,US,1722369743
192,sawakin,19.1059,37.3321,34.34000000000003,47,100,4.4,SD,1722370010
193,egilsstadir,65.2653,-14.3948,12.920000000000016,81,100,1.28,IS,1722370012
194,dauphin,51.1494,-100.0502,31.08000000000004,48,0,5.14,CA,1722370013
195,vorgashor,67.5833,63.95,16.010000000000048,98,100,1.74,RU,1722370014
196,turrialba,9.9047,-83.6835,26.129999999999995,94,100,2.16,CR,1722370015
197,minab,27.1467,57.0801,34.18000000000001,61,95,1.85,IR,1722370016
198,nova vicosa,-17.8919,-39.3719,24.870000000000005,74,9,3.2,BR,1722369887
199,mahdia,35.5047,11.0622,28.970000000000027,67,0,2.85,TN,1722370019
200,dogonbadan,30.3586,50.7981,32.30000000000001,31,33,0.37,IR,1722370020
201,invercargill,-46.4,168.35,3.340000000000032,83,24,2.24,NZ,1722369468
202,nago,26.5881,127.9761,29.24000000000001,89,99,1.6,JP,1722370022
203,tangalle,6.024,80.7911,26.439999999999998,86,100,4.19,LK,1722370023
204,newman,37.3138,-121.0208,31.189999999999998,17,0,1.09,US,1722369879
205,bikenibeu village,1.3673,173.1241,28.980000000000018,79,20,1.54,KI,1722370026
206,chipiona,36.7366,-6.437,25.170000000000016,83,0,4.63,ES,1722369973
207,aitape,-3.1374,142.3475,25.410000000000025,91,96,1.66,PG,1722370028
208,atafu village,-8.5421,-172.5159,27.82000000000005,76,100,10.95,TK,1722369681
209,the pas,53.8251,-101.2541,28.939999999999998,37,31,2.02,CA,1722370031
210,afaahiti,-17.75,-149.2833,23.930000000000007,62,92,13.16,PF,1722370033
211,kingston,17.997,-76.7936,33.53000000000003,55,20,8.75,JM,1722369609
212,liepaja,56.5419,21.0367,16.99000000000001,88,0,2.57,LV,1722370035
213,chamba,32.5667,76.1333,26.99000000000001,93,100,1.14,IN,1722370036
214,farafangana,-22.8167,47.8333,21.230000000000018,84,50,1.49,MG,1722370037
215,mazyr,52.0495,29.2456,15.960000000000036,83,9,4.85,BY,1722370039
216,holualoa,19.6228,-155.9522,27.53000000000003,67,40,4.63,US,1722370040
217,belfast,54.5833,-5.9333,14.900000000000034,74,75,4.63,GB,1722370041
218,kindu,-2.95,25.95,27.930000000000007,44,96,0.5,CD,1722370042
219,bossangoa,6.4926,17.4552,22.07000000000005,98,100,1.7,CF,1722370043
220,alice springs,-23.7,133.8833,-1.25,69,0,2.06,AU,1722370045
221,wamba,8.9333,8.6,23.24000000000001,93,100,1.59,NG,1722370046
222,enewetak,11.3474,162.3373,28.379999999999995,74,89,2.43,MH,1722370047
223,estevan,49.1334,-102.9842,31.230000000000018,35,75,5.66,CA,1722370048
224,fortuna,40.5982,-124.1573,19.510000000000048,90,100,4.12,US,1722370049
225,camana,-16.6228,-72.7111,17.04000000000002,78,9,3.33,PE,1722370050
226,tadine,-21.55,167.8833,20.05000000000001,81,100,4.6,NC,1722370052
227,mournies,35.4764,24.0092,40.04000000000002,61,0,0.0,GR,1722370053
228,hamilton,39.1834,-84.5333,32.43000000000001,61,40,1.79,US,1722370000
229,maun,-19.9833,23.4167,17.689999999999998,15,1,1.52,BW,1722370055
230,marat,25.0701,45.4615,32.950000000000045,13,100,2.88,SA,1722370056
231,raigarh,21.9,83.4,27.090000000000032,84,100,2.71,IN,1722370057
232,spanish wells,26.323,-81.7957,32.23000000000002,34,0,1.54,US,1722370058
233,belawan,3.7755,98.6832,25.160000000000025,93,100,2.64,ID,1722370060
234,puerto baquerizo moreno,-0.9,-89.6,21.55000000000001,88,100,8.23,EC,1722370061
235,port alfred,-33.5906,26.891,12.32000000000005,71,40,2.24,ZA,1722370062
236,kapuskasing,49.4169,-82.4331,25.05000000000001,83,75,6.17,CA,1722370063
237,la'ie,21.6477,-157.9253,26.980000000000018,79,100,1.34,US,1722370064
238,fort-shevchenko,44.5086,50.263,25.420000000000016,64,0,3.4,KZ,1722370065
239,sarykemer,43.0,71.5,23.710000000000036,32,100,3.91,KZ,1722370067
240,kisanga,-7.4362,37.7034,22.180000000000007,73,4,2.89,TZ,1722370068
241,cestos city,5.46,-9.5828,25.129999999999995,82,100,5.21,LR,1722370070
242,yorkton,51.2167,-102.4677,31.24000000000001,27,16,5.64,CA,1722370072
243,kapa'a,22.0752,-159.319,26.180000000000007,76,100,7.2,US,1722370073
244,bluefield,37.2698,-81.2223,25.53000000000003,76,100,4.12,US,1722370074
245,verkhnevilyuysk,63.4453,120.3167,10.950000000000045,51,100,3.04,RU,1722370075
246,berezovyy,51.6667,135.7,15.550000000000011,94,0,1.08,RU,1722370077
247,lerwick,60.1545,-1.1494,12.0,82,51,8.16,GB,1722370079
248,saldanha,-33.0117,17.9442,12.090000000000032,72,0,7.94,ZA,1722370080
249,ardakan,32.31,54.0175,34.03000000000003,20,81,3.81,IR,1722370081
250,whitehorse,60.7161,-135.0538,18.230000000000018,48,75,3.6,CA,1722369808
251,bodo,67.28,14.405,18.30000000000001,77,0,3.09,NO,1722370083
252,chukhloma,58.7525,42.6825,13.680000000000007,92,97,1.07,RU,1722370084
253,dali,25.7,100.1833,17.28000000000003,92,100,2.2,CN,1722370086
254,keetmanshoop,-26.5833,18.1333,11.200000000000045,29,0,2.83,NA,1722370087
255,south grafton,-29.7,152.95,3.0400000000000205,84,8,1.92,AU,1722370088
256,san pedro pochutla,15.7333,-96.4667,32.620000000000005,65,100,2.73,MX,1722370089
257,incline village,39.2513,-119.973,27.939999999999998,23,0,5.66,US,1722370091
258,mumbai,19.0144,72.8479,26.99000000000001,89,75,3.6,IN,1722369944
259,flying fish cove,-10.4217,105.6791,24.82000000000005,83,75,4.63,CX,1722370093
260,andergrove,-21.0833,149.1833,12.03000000000003,80,0,5.48,AU,1722370094
261,mossel bay,-34.1831,22.146,10.810000000000002,70,3,3.32,ZA,1722370096
262,sarankhola,22.3082,89.7897,26.860000000000014,92,100,1.7,BD,1722370098
263,pariaman,-0.619,100.12,25.03000000000003,91,95,1.82,ID,1722370099
264,ancud,-41.8697,-73.8203,9.379999999999995,69,100,3.34,CL,1722370101
265,san luis de la loma,17.2706,-100.8939,25.689999999999998,92,100,1.1,MX,1722370103
266,suntar,62.1444,117.6319,5.75,87,0,2.17,RU,1722370104
267,douglas,41.3,-96.167,31.960000000000036,63,0,6.17,US,1722369942
268,paracuru,-3.41,-39.0306,27.28000000000003,74,4,6.1,BR,1722370106
269,smithers,54.7804,-127.1743,15.860000000000014,81,100,1.28,CA,1722370107
270,abrisham,32.558,51.5731,29.57000000000005,22,57,2.79,IR,1722370109
271,juneau,58.3019,-134.4197,16.0,100,75,4.12,US,1722370086
272,sinabang,2.4803,96.3801,25.970000000000027,86,100,1.04,ID,1722370111
273,ubari,26.5921,12.7805,29.850000000000023,18,0,3.34,LY,1722370112
274,gadzhiyevo,69.2551,33.3362,9.670000000000016,90,97,6.63,RU,1722370113
275,suva,-18.1416,178.4415,22.710000000000036,88,75,1.54,FJ,1722370115
276,konsoy,40.4915,69.7025,22.980000000000018,23,41,2.81,TJ,1722370116
277,lospalos,-8.5186,127.0025,21.140000000000043,91,100,3.54,TL,1722370117
278,svencionys,55.15,26.1667,14.730000000000018,93,0,4.14,LT,1722370118
279,libreville,0.3925,9.4537,26.010000000000048,78,20,3.6,GA,1722370119
280,fuglafjordur,62.244,-6.814,11.260000000000048,83,60,4.05,FO,1722370122
281,hotan,37.0997,79.9269,33.22000000000003,13,100,6.24,CN,1722370123
282,ilulissat,69.2167,-51.1,7.010000000000048,76,75,3.6,GL,1722370124
283,naze,28.3667,129.4833,26.420000000000016,83,96,3.48,JP,1722370126
284,bol,13.4586,14.7147,27.660000000000025,79,88,7.39,TD,1722370127
285,wakkanai,45.4094,141.6739,15.410000000000025,92,66,5.56,JP,1722370128
286,shingu,33.7333,135.9833,26.28000000000003,84,85,2.36,JP,1722370129
287,matveyev kurgan,47.5645,38.8695,22.680000000000007,44,93,4.56,RU,1722370130
288,guaraciaba do norte,-4.1669,-40.7475,29.220000000000027,27,14,2.39,BR,1722370131
289,hithadhoo,-0.6,73.0833,28.730000000000018,76,100,3.3,MV,1722370133
290,el porvenir,13.7617,-87.3458,31.629999999999995,42,100,4.55,HN,1722370134
291,kaya,13.0917,-1.0844,28.610000000000014,62,52,4.01,BF,1722370135
292,miri,4.4148,114.0089,24.74000000000001,93,75,2.29,MY,1722370136
293,talnakh,69.4865,88.3972,18.150000000000034,49,0,2.43,RU,1722370137
294,padangsidempuan,1.3667,99.2667,22.590000000000032,98,100,0.79,ID,1722370140
295,moyale,3.5167,39.0584,22.340000000000032,59,100,5.48,KE,1722370141
296,salekhard,66.53,66.6019,15.650000000000034,96,96,2.67,RU,1722370142
297,crane,31.3974,-102.3501,36.420000000000016,31,0,7.53,US,1722370143
298,port isabel,26.0734,-97.2086,33.05000000000001,70,40,9.77,US,1722370145
299,harper,4.375,-7.7169,24.590000000000032,80,100,4.55,LR,1722370146
300,geraldton,-28.7667,114.6,13.230000000000018,94,0,4.63,AU,1722370147
301,agbabu,6.5886,4.8343,24.379999999999995,89,100,1.97,NG,1722370148
302,salavat,53.3837,55.9077,17.460000000000036,89,100,1.72,RU,1722370149
303,huskvarna,57.786,14.3021,16.0,77,0,2.06,SE,1722370151
304,nuku'alofa,-21.1333,-175.2,22.410000000000025,63,40,8.9,TO,1722370152
305,pombas,17.1503,-25.0201,24.879999999999995,75,50,4.47,CV,1722370153
306,new norfolk,-42.7826,147.0587,3.730000000000018,97,10,0.96,AU,1722370154
307,kimbe,-5.5502,150.1429,23.660000000000025,93,43,2.13,PG,1722370155
308,mount pearl,47.5166,-52.7813,27.960000000000036,68,78,4.92,CA,1722370156
309,balykshi,47.0667,51.8667,22.0,53,0,3.0,KZ,1722370159
310,greenville,35.6127,-77.3663,32.09000000000003,66,40,6.17,US,1722369909
311,mitu,1.1983,-70.1733,30.74000000000001,56,42,1.52,CO,1722370142
312,sisimiut,66.9395,-53.6735,3.890000000000043,95,100,5.11,GL,1722370162
313,cole harbour,44.6724,-63.4751,22.210000000000036,89,100,2.68,CA,1722370164
314,porbandar,21.6422,69.6093,27.57000000000005,87,13,7.21,IN,1722370165
315,kristiansund,63.1115,7.732,12.850000000000023,96,75,1.54,NO,1722370155
316,mpigi,0.225,32.3136,19.24000000000001,80,95,1.41,UG,1722370167
317,buncrana,55.1333,-7.45,14.870000000000005,86,100,1.48,IE,1722370169
318,puerto rosario,-24.45,-57.0833,25.360000000000014,52,21,0.8,PY,1722370170
319,richards bay,-28.783,32.0377,18.060000000000002,61,13,4.76,ZA,1722370171
320,guelmim,28.987,-10.0574,23.80000000000001,65,4,4.0,MA,1722370172
321,bilokurakyne,49.5341,38.7307,17.55000000000001,61,0,3.87,UA,1722370173
322,tazacorte,28.629,-17.9293,23.54000000000002,89,20,6.69,ES,1722370175
323,xilin hot,43.9667,116.0333,18.879999999999995,88,100,4.06,CN,1722370092
324,labytnangi,66.6572,66.4183,16.02000000000004,95,99,2.61,RU,1722370177
325,santa elena de uairen,4.6167,-61.1333,22.930000000000007,75,65,4.43,VE,1722370178
326,speightstown,13.25,-59.65,31.340000000000032,66,8,1.49,BB,1722370180
327,kill devil hills,36.0307,-75.676,30.0,71,0,6.17,US,1722370181
328,broome,42.2506,-75.833,29.08000000000004,62,40,4.12,US,1722370182
329,weno,7.4515,151.8468,26.970000000000027,83,40,3.6,FM,1722370183
330,zaoyang,32.1272,112.7542,23.640000000000043,98,100,1.91,CN,1722370184
331,southampton,50.904,-1.4043,24.900000000000034,63,0,0.0,GB,1722370186
332,charters towers,-20.1,146.2667,8.879999999999995,63,0,3.69,AU,1722370187
333,kontagora,10.3999,5.4695,24.260000000000048,86,35,1.17,NG,1722370189
334,ingeniero guillermo n. juarez,-23.9,-61.85,23.900000000000034,42,2,4.6,AR,1722370190
335,chernyshevsk,52.5243,117.0174,16.370000000000005,94,79,2.36,RU,1722370192
336,yemetsk,63.4721,41.7941,15.140000000000043,84,100,1.98,RU,1722370193
337,hilo,19.7297,-155.09,23.950000000000045,95,100,2.06,US,1722370037
338,hashtrud,37.4779,47.0508,21.629999999999995,46,0,1.55,IR,1722370153
339,imbituba,-28.24,-48.6703,18.25,69,56,2.03,BR,1722370196
340,kamiiso,41.8167,140.65,20.400000000000034,97,100,2.06,JP,1722370197
341,karungdong,5.8844,121.263,26.57000000000005,83,14,1.61,PH,1722370199
342,luanda,-8.8368,13.2343,19.720000000000027,87,5,4.84,AO,1722370020
343,gallatin,45.6666,-111.2008,21.879999999999995,52,100,4.12,US,1722370201
344,verdal,63.7933,11.4817,17.02000000000004,76,100,3.0,NO,1722370202
345,prince rupert,54.3161,-130.3201,15.050000000000011,94,100,3.09,CA,1722370204
346,arno,60.1167,18.6333,16.55000000000001,67,1,2.78,SE,1722370205
347,itaberai,-16.0203,-49.8103,31.379999999999995,20,12,2.05,BR,1722370206
348,umluj,25.0213,37.2685,31.52000000000004,62,60,1.87,SA,1722370208
349,santiago de cao,-7.9589,-79.2392,18.07000000000005,88,75,4.12,PE,1722370209
350,stornoway,58.2093,-6.3865,11.980000000000018,90,100,4.12,GB,1722370210
351,pirenopolis,-15.8525,-48.9592,30.79000000000002,21,50,3.14,BR,1722370211
352,kariong,-33.44,151.3011,9.29000000000002,68,100,0.45,AU,1722370213
353,la passe,45.5549,-0.8967,31.129999999999995,78,3,3.94,FR,1722370214
354,flin flon,54.7682,-101.865,30.05000000000001,32,48,2.88,CA,1722370215
355,tanhacu,-14.0214,-41.2481,28.360000000000014,27,0,1.36,BR,1722370216
356,la reforma,25.0833,-108.05,33.129999999999995,55,10,6.19,MX,1722370217
357,argo,37.6333,22.7333,28.53000000000003,45,50,1.57,GR,1722370219
358,tres lagoas,-20.7511,-51.6783,29.600000000000023,28,7,4.23,BR,1722370220
359,serdar,38.9764,56.2757,29.010000000000048,36,0,4.19,TM,1722370221
360,ambodifotatra,-16.9833,49.85,23.090000000000032,67,1,1.06,MG,1722370222
361,sassandra,4.95,-6.0833,23.55000000000001,87,58,3.51,CI,1722370223
362,gilgit,35.9221,74.3087,25.560000000000002,64,100,0.89,PK,1722370225
363,tongchuanshi,35.0806,109.0897,21.970000000000027,87,0,0.59,CN,1722370226
364,polyarnyy,69.1989,33.4478,9.54000000000002,89,98,6.17,RU,1722370227
365,beau vallon,-20.4189,57.6953,19.560000000000002,77,40,0.0,MU,1722370228
366,northam,51.0333,-4.2167,19.660000000000025,85,34,3.93,GB,1722370229
367,oistins,13.0667,-59.5333,31.05000000000001,66,20,5.14,BB,1722370230
368,santanyi,39.3546,3.1291,31.57000000000005,64,0,2.42,ES,1722370232
369,orotina,9.912,-84.5234,31.420000000000016,75,99,1.79,CR,1722370234
370,okha,53.5739,142.9478,10.890000000000043,93,19,1.49,RU,1722370235
371,el jadid,33.2549,-8.506,22.480000000000018,88,0,5.03,MA,1722370236
372,cururupu,-1.8283,-44.8683,28.370000000000005,65,1,2.47,BR,1722370238
373,khandyga,62.6667,135.6,10.430000000000007,96,99,1.06,RU,1722370239
374,santa marta,11.2408,-74.199,32.72000000000003,67,10,2.24,CO,1722370176
375,uturoa,-16.7333,-151.4333,23.939999999999998,56,55,9.53,PF,1722370241
376,dawson creek,55.7666,-120.2362,22.689999999999998,41,100,8.62,CA,1722370242
377,rochester,43.1548,-77.6156,30.060000000000002,67,75,4.63,US,1722370061
378,ndele,8.4109,20.6473,22.189999999999998,97,100,1.85,CF,1722370245
379,fale old settlement,-9.3852,-171.2468,27.390000000000043,75,100,10.81,TK,1722370246
380,paramirim,-13.4425,-42.2389,29.220000000000027,24,0,4.51,BR,1722370247
381,diebougou,10.9667,-3.25,24.82000000000005,84,70,1.57,BF,1722370250
382,lundazi,-12.2929,33.1782,16.850000000000023,29,1,3.29,ZM,1722370251
383,masterton,-40.9597,175.6575,7.710000000000036,96,100,3.97,NZ,1722370252
384,katsuura,35.1333,140.3,25.75,91,100,1.6,JP,1722370154
385,beidaihehaibin,39.8222,119.5181,25.460000000000036,97,66,5.17,CN,1722370255
386,qala i naw,34.9874,63.1289,27.02000000000004,25,0,3.3,AF,1722370256
387,shimoda,34.6667,138.95,26.720000000000027,77,100,2.15,JP,1722370257
388,touba,8.2833,-7.6833,21.670000000000016,97,39,2.44,CI,1722370258
389,labrador city,52.9463,-66.9114,28.99000000000001,46,100,3.58,CA,1722370259
390,nuuk,64.1835,-51.7216,4.340000000000032,87,100,7.2,GL,1722370261
391,baiti,13.745,-14.7482,25.960000000000036,88,100,3.1,SN,1722370262
392,saint-pol-de-leon,48.6833,-3.9833,20.5,77,0,2.06,FR,1722370263
393,papao,-17.75,-149.55,24.82000000000005,60,94,11.65,PF,1722370078
394,souillac,-20.5167,57.5167,19.640000000000043,77,40,0.0,MU,1722370266
395,udachny,66.4167,112.4,8.340000000000032,63,52,1.99,RU,1722370267
396,macapa,0.0389,-51.0664,32.99000000000001,55,40,3.6,BR,1722370121
397,novoul'yanovsk,54.1496,48.3891,17.5,56,1,3.23,RU,1722370269
398,midvagur,62.0511,-7.1939,11.460000000000036,93,75,6.17,FO,1722370270
399,sirte,31.2089,16.5887,27.82000000000005,73,0,5.4,LY,1722370272
400,vadso,70.0744,29.7487,14.090000000000032,54,0,7.2,NO,1722370275
401,kavaratti,10.5669,72.642,27.260000000000048,87,100,7.09,IN,1722370276
402,'ahuimanu,21.4447,-157.8378,26.840000000000032,76,75,5.14,US,1722370277
403,yaren,-0.5472,166.916,27.810000000000002,70,51,1.51,NR,1722370278
404,kirensk,57.7853,108.1119,11.939999999999998,95,6,2.35,RU,1722370279
405,sungai penuh,-2.0833,101.3833,18.150000000000034,95,74,2.1,ID,1722370280
406,cartagena del chaira,1.3349,-74.8429,25.870000000000005,81,77,0.92,CO,1722370282
407,margate,51.3813,1.3862,20.49000000000001,76,8,4.77,GB,1722370140
408,karaton,-6.3424,106.1045,21.28000000000003,93,72,0.33,ID,1722370284
409,jabor,5.921,169.6434,28.439999999999998,74,95,1.4,MH,1722370285
410,santo angelo,-28.2992,-54.2631,16.810000000000002,87,100,3.36,BR,1722370286
411,cockburn town,21.4612,-71.1419,28.49000000000001,81,30,8.89,TC,1722370288
412,tanjung pandan,-2.75,107.65,24.5,92,69,2.48,ID,1722370289
413,carutapera,-1.195,-46.02,28.210000000000036,69,20,4.99,BR,1722370290
414,rio preto da eva,-2.6994,-59.6997,37.09000000000003,24,6,2.31,BR,1722370291
415,pati,-6.7559,111.038,22.860000000000014,86,14,1.13,ID,1722370292
416,guiping,23.3925,110.0814,24.660000000000025,95,94,1.8,CN,1722370294
417,broken hill,-31.95,141.4333,5.960000000000036,65,10,3.53,AU,1722370295
418,mili,6.0815,171.735,28.32000000000005,76,94,5.12,MH,1722370296
419,vilyuysk,63.7553,121.6247,11.020000000000039,54,97,3.45,RU,1722370297
420,salalah,17.0151,54.0924,25.05000000000001,100,100,1.54,OM,1722370298
421,palikir - national government center,6.9248,158.1611,27.370000000000005,75,4,2.1,FM,1722370300
422,coahuayana de hidalgo,18.7,-103.6583,28.74000000000001,78,100,2.94,MX,1722370301
423,la rioja,42.25,-2.5,22.879999999999995,27,0,4.2,ES,1722370089
424,hovd,48.0056,91.6419,20.75,56,100,0.73,MN,1722370303
425,savonlinna,61.8699,28.88,16.03000000000003,88,100,2.57,FI,1722370304
426,baruun-urt,46.6806,113.2792,18.980000000000018,84,100,2.0,MN,1722370305
427,alotau,-10.3069,150.4462,23.30000000000001,98,100,1.77,PG,1722370307
428,cheyenne,41.14,-104.8203,34.32000000000005,9,0,9.77,US,1722370021
429,ad dawadimi,24.5077,44.3924,30.640000000000043,14,100,3.02,SA,1722370309
430,menaka,15.9182,2.4022,35.47000000000003,37,49,3.21,ML,1722370310
431,vila franca do campo,37.7167,-25.4333,25.230000000000018,77,26,1.88,PT,1722370311
432,mount gambier,-37.8333,140.7667,3.170000000000016,94,19,2.46,AU,1722370312
433,ilhabela,-23.7781,-45.3581,18.25,93,100,3.03,BR,1722370314
434,playa blanca,28.8643,-13.8281,24.110000000000014,84,0,5.88,ES,1722370315
435,mugia,43.1041,-9.2179,23.420000000000016,83,0,1.86,ES,1722370316
436,twante,16.7167,95.9333,26.07000000000005,89,100,1.92,MM,1722370317
437,beloyarskiy,63.7119,66.6722,14.350000000000023,88,78,1.99,RU,1722370318
438,hami,42.8,93.45,31.970000000000027,18,0,6.05,CN,1722370320
439,talara,-4.5772,-81.2719,23.420000000000016,68,0,7.96,PE,1722370321
440,platteville,42.7342,-90.4785,30.400000000000034,66,0,2.57,US,1722370322
441,aquidauana,-20.4711,-55.7872,33.14000000000004,23,4,0.59,BR,1722370324
442,thief river falls,48.1191,-96.1812,28.53000000000003,61,0,4.12,US,1722370325
443,acarau,-2.8856,-40.12,27.439999999999998,70,6,7.6,BR,1722370212
444,kodinsk,58.6881,99.1844,17.33000000000004,92,100,1.44,RU,1722370327
445,queenstown,-31.8976,26.8753,2.430000000000007,72,1,0.34,ZA,1722370328
446,catalao,-18.1658,-47.9464,28.700000000000045,20,2,2.91,BR,1722370330
447,camocim,-2.9022,-40.8411,27.49000000000001,74,27,8.08,BR,1722370331
448,rawson,-43.3002,-65.1023,13.660000000000025,26,100,3.79,AR,1722370051
449,tubarjal,30.4999,38.216,31.310000000000002,21,0,5.91,SA,1722370333
450,trenggalek,-8.05,111.7167,22.5,97,85,0.87,ID,1722370334
451,gembu,6.7,11.2667,15.660000000000025,98,93,1.23,NG,1722370336
452,sao vicente,-23.9631,-46.3919,20.150000000000034,93,100,0.89,BR,1722370319
453,new smyrna beach,29.0258,-80.927,34.08000000000004,65,40,5.14,US,1722370093
454,bel ombre,-4.6167,55.4167,25.910000000000025,83,20,5.66,SC,1722370339
455,san andres,12.5847,-81.7006,32.01000000000005,70,20,7.2,CO,1722370341
456,tofol,5.3248,163.0078,28.430000000000007,74,36,3.35,FM,1722370342
457,taguatinga,-12.3857,-46.5711,34.78000000000003,19,13,2.52,BR,1722370343
458,sultanbeyli,40.9607,29.2707,24.629999999999995,64,0,4.63,TR,1722370344
459,east ballina,-28.8667,153.5833,7.110000000000014,83,70,5.11,AU,1722370346
460,stanley,54.868,-1.6985,17.010000000000048,79,0,4.12,GB,1722370347
461,maharajgani,26.1167,84.4833,32.83000000000004,57,85,5.02,IN,1722370349
462,huayin,34.5675,110.0921,24.08000000000004,65,7,3.06,CN,1722370351
463,mbandaka,0.0487,18.2603,23.900000000000034,70,3,1.91,CD,1722370352
464,orebro,59.2741,15.2066,19.100000000000023,68,0,3.09,SE,1722370353
465,sona,45.4388,10.8255,27.75,65,0,1.54,IT,1722370354
466,mil'kovo,55.6078,37.7956,17.57000000000005,70,98,2.95,RU,1722370355
467,saint-joseph,-21.3667,55.6167,18.210000000000036,69,0,2.32,RE,1722370356
468,arauca,7.0847,-70.7591,27.30000000000001,81,100,2.05,CO,1722370358
469,laojunmiao,39.8333,97.7333,23.590000000000032,25,7,5.07,CN,1722370359
470,nikolayevsk-on-amure,53.1406,140.73,10.960000000000036,92,72,1.02,RU,1722370360
471,cudillero,43.5622,-6.1459,23.24000000000001,87,100,1.54,ES,1722370362
472,cabo san lucas,22.8909,-109.9124,35.900000000000034,46,0,5.14,MX,1722370165
473,macau,22.2006,113.5461,26.890000000000043,94,40,3.09,MO,1722370196
474,bengkulu,-3.8004,102.2655,24.08000000000004,93,91,2.86,ID,1722370366
475,rongelap,11.1635,166.8941,28.140000000000043,78,45,4.92,MH,1722370368
476,ulety,51.3572,112.4849,15.270000000000039,91,1,0.99,RU,1722370370
477,douentza,14.9951,-2.9517,32.920000000000016,45,9,2.95,ML,1722370371
478,eraan,9.0629,117.7016,25.890000000000043,86,21,1.4,PH,1722370372
479,necochea,-38.5473,-58.7368,12.5,37,46,8.12,AR,1722370373
480,sept-iles,50.2001,-66.3821,22.29000000000002,67,40,4.63,CA,1722370374
481,tyukhtet,56.5389,89.3011,15.78000000000003,92,99,1.2,RU,1722370376
482,novyy turtkul',41.55,61.0167,21.950000000000045,19,2,3.95,UZ,1722370378
483,novyy urgal,51.0736,132.5642,15.910000000000025,95,25,0.45,RU,1722370379
484,howrah,22.5892,88.3103,29.0,89,40,3.09,IN,1722370380
485,huilong,31.8111,121.655,27.470000000000027,86,0,5.69,CN,1722370382
486,horta,38.5333,-28.6333,23.80000000000001,78,20,6.17,PT,1722370383
487,carthage,36.8611,10.3316,26.74000000000001,69,0,1.03,TN,1722370384
488,soio,-6.1349,12.3689,20.860000000000014,89,29,3.91,AO,1722370385
489,darab,28.7519,54.5444,32.85000000000002,37,15,3.22,IR,1722370386
490,jalal-abad,40.9333,73.0,25.80000000000001,30,2,2.28,KG,1722370280
491,steinbach,50.1667,8.5667,26.30000000000001,61,0,3.09,DE,1722370389
492,kolonia town,6.964,158.206,27.950000000000045,74,5,2.1,FM,1722370390
493,port said,31.2565,32.2841,28.100000000000023,73,0,4.39,EG,1722370391
494,ube,33.9431,131.2511,28.460000000000036,84,75,3.6,JP,1722370393
495,nemuro,43.3236,145.575,14.470000000000027,95,86,5.33,JP,1722370395
496,sampit,-2.5333,112.95,23.210000000000036,100,97,0.35,ID,1722370396
497,turabah,21.2141,41.6331,28.700000000000045,37,96,2.22,SA,1722370397
498,n'djamena,12.1067,15.0444,26.57000000000005,74,96,5.85,TD,1722370398
499,suksun,57.1431,57.3949,13.78000000000003,93,73,1.7,RU,1722370400
500,tete,-16.1564,33.5867,20.05000000000001,64,0,2.06,MZ,1722370402
501,dalandzadgad,43.5708,104.425,23.260000000000048,41,45,1.88,MN,1722370403
502,dryden,49.7833,-92.7503,30.640000000000043,32,0,1.5,CA,1722370198
503,kirillov,59.863,38.3813,12.390000000000043,95,100,1.37,RU,1722370406
504,kone,-21.0595,164.8658,19.060000000000002,80,100,2.0,NC,1722370407
505,yokadouma,3.5167,15.05,21.53000000000003,92,46,1.31,CM,1722370408
506,menongue,-14.6585,17.691,16.02000000000004,21,4,0.98,AO,1722370409
507,aberystwyth,52.4155,-4.0829,18.730000000000018,93,100,0.41,GB,1722370411
508,rockingham,42.9668,-71.0995,32.57000000000005,65,84,0.45,US,1722370113
509,songea,-10.6833,35.65,14.800000000000011,33,0,1.37,TZ,1722370413
510,alapayevsk,57.8516,61.6963,12.720000000000027,92,46,1.81,RU,1722370414
511,phillip island,-38.4835,145.231,4.150000000000034,64,1,2.52,AU,1722370415
512,khorramabad,33.4878,48.3558,26.79000000000002,19,0,1.03,IR,1722370417
513,miyaly,48.8844,53.7836,26.52000000000004,30,3,4.64,KZ,1722370418
514,kivsharivka,49.6213,37.7036,16.590000000000032,66,0,2.9,UA,1722370419
515,banjar,-8.19,114.9675,24.350000000000023,91,48,1.9,ID,1722370420
516,clayton,33.5335,-84.3666,33.02000000000004,73,40,3.09,US,1722370421
517,tolanaro,-25.0319,46.9987,21.04000000000002,88,75,3.09,MG,1722370423
518,al jawf,29.5,38.75,30.760000000000048,16,16,3.54,SA,1722370424
519,arkhipo-osipovka,44.37,38.52,20.160000000000025,66,73,2.98,RU,1722370425
520,tapejara,-28.0681,-52.0139,13.550000000000011,83,100,3.29,BR,1722370426
521,lagoa,39.05,-27.9833,22.600000000000023,82,74,7.33,PT,1722370427
522,la jagua de ibirico,9.5623,-73.3341,36.450000000000045,42,72,1.7,CO,1722370429
523,bonthe,7.5264,-12.505,25.08000000000004,82,100,5.15,SL,1722370430
524,paramonga,-10.6667,-77.8333,19.0,76,6,3.94,PE,1722370431
525,cill airne,52.05,-9.5167,15.890000000000043,88,100,2.15,IE,1722370432
526,shibirghan,36.6676,65.7529,29.379999999999995,20,0,3.25,AF,1722370434
527,wanning,18.8003,110.3967,26.0,87,100,3.29,CN,1722370436
528,ryotsu-minato,38.0833,138.4333,23.420000000000016,94,100,1.65,JP,1722370437
529,livingstone,-17.8419,25.8543,16.960000000000036,27,2,2.0,ZM,1722370438
530,samaro,25.2815,69.3965,30.99000000000001,71,94,5.43,PK,1722370439
531,floresville,29.1336,-98.1561,35.53000000000003,41,0,6.84,US,1722370442
532,chegdomyn,51.1167,133.0167,16.390000000000043,91,47,0.77,RU,1722370443
533,porto novo,6.4965,2.6036,24.900000000000034,85,100,4.03,BJ,1722370444
534,burang,30.25,81.1667,12.310000000000002,76,92,2.11,CN,1722370445
535,kattivakkam,13.2167,80.3167,31.189999999999998,67,99,7.18,IN,1722370447
536,bazarak,35.3129,69.5152,18.660000000000025,37,30,3.36,AF,1722370448
537,jieshi,22.8134,115.8257,27.180000000000007,85,100,3.4,CN,1722370449
538,igarka,67.4667,86.5833,19.52000000000004,56,100,6.96,RU,1722370450
539,brokopondo,4.75,-55.1667,31.32000000000005,50,39,2.08,SR,1722370452
540,benguela,-12.5763,13.4055,19.900000000000034,84,29,1.98,AO,1722370453
541,borogontsy,62.6683,131.1683,6.8700000000000045,77,23,2.69,RU,1722370454
542,thames,-37.1333,175.5333,10.730000000000018,97,93,1.02,NZ,1722370456
543,birobidzhan,48.8,132.95,17.24000000000001,93,49,0.87,RU,1722370458
544,salem,11.65,78.1667,23.340000000000032,96,100,0.98,IN,1722370459
545,mersa matruh,31.3525,27.2453,27.310000000000002,75,0,3.33,EG,1722370460
546,kochubey,44.3861,46.5825,22.189999999999998,84,0,3.74,RU,1722370461
547,herceg novi,42.4531,18.5375,30.49000000000001,73,0,0.51,ME,1722370463
548,san antonio de pale,-1.4014,5.6325,22.54000000000002,77,98,6.05,GQ,1722370464
549,arua,3.0201,30.9111,18.260000000000048,91,100,0.72,UG,1722370465
550,sao joao do piaui,-8.3581,-42.2467,33.34000000000003,22,0,4.18,BR,1722370309
551,gusau,12.1628,6.6614,26.590000000000032,72,94,4.65,NG,1722370467
552,san patricio,28.017,-97.5169,33.420000000000016,55,2,8.16,US,1722370469
553,oamaru,-45.0784,170.9801,3.5400000000000205,81,100,3.96,NZ,1722370470
554,wenchang,30.904,118.4887,27.730000000000018,80,0,2.16,CN,1722370471
555,ormara,25.2088,64.6357,27.870000000000005,90,98,6.52,PK,1722370472
556,alofi,-19.0595,-169.9187,21.939999999999998,60,75,5.66,NU,1722370474
557,issia,6.4922,-6.5856,22.200000000000045,98,100,1.32,CI,1722370475
558,lucea,18.451,-78.1736,30.920000000000016,72,99,4.09,JM,1722370476
559,port saint john's,-31.6229,29.5448,14.430000000000007,53,14,5.67,ZA,1722370478
560,tingo maria,-9.2895,-76.0088,31.170000000000016,51,20,2.06,PE,1722370479
561,lazaro cardenas,17.9583,-102.2,26.670000000000016,89,100,3.03,MX,1722370480
562,guerrero negro,27.9769,-114.0611,24.02000000000004,61,7,8.08,MX,1722370481
563,portage la prairie,49.9728,-98.2926,31.05000000000001,54,0,6.17,CA,1722370337
564,tevriz,57.509,72.4042,12.490000000000009,98,3,2.02,RU,1722370484
565,inarajan village,13.2736,144.7484,26.890000000000043,79,100,0.6,GU,1722370485
