City_ID,City,Lat,Lng,Max Temp,Humidity,Cloudiness,Wind Speed,Country,Date
0,grytviken,-54.2811,-36.5092,-0.5600000000000023,91,100,2.1,GS,1722024510
1,claremont,34.0967,-117.7198,37.94,36,0,5.66,US,1722024488
2,songea,-10.6833,35.65,13.700000000000045,31,0,0.72,TZ,1722024513
3,puerto natales,-51.7236,-72.4875,3.25,75,75,4.63,CL,1722024514
4,bilibino,68.0546,166.4372,3.480000000000018,72,100,2.27,RU,1722024515
5,bethel,41.3712,-73.414,28.78000000000003,48,0,5.66,US,1722023972
6,port-aux-francais,-49.35,70.2167,0.5300000000000296,82,49,18.68,TF,1722024517
7,anadyr,64.75,177.4833,8.28000000000003,81,75,5.0,RU,1722024518
8,kirakira,-10.4544,161.9205,24.57000000000005,87,100,3.7,SB,1722024520
9,blackmans bay,-43.0167,147.3167,9.07000000000005,78,100,0.45,AU,1722024521
10,la sarre,48.8002,-79.1996,24.689999999999998,52,31,3.22,CA,1722024522
11,utrik,11.2278,169.8474,27.840000000000032,81,100,8.46,MH,1722024523
12,hawaiian paradise park,19.5933,-154.9731,26.730000000000018,80,100,2.57,US,1722024524
13,mount gambier,-37.8333,140.7667,7.2000000000000455,96,100,1.52,AU,1722024525
14,cidreira,-30.1811,-50.2056,17.060000000000002,82,84,2.85,BR,1722024526
15,nemuro,43.3236,145.575,13.220000000000027,91,65,1.92,JP,1722024529
16,fada n'gourma,12.0622,0.3578,28.340000000000032,69,73,2.81,BF,1722024530
17,aasiaat,68.7098,-52.8699,2.4399999999999977,95,100,3.8,GL,1722024531
18,olonkinbyen,70.9221,-8.7187,5.060000000000002,98,100,4.48,SJ,1722024532
19,college,64.8569,-147.8028,20.180000000000007,79,100,4.12,US,1722024533
20,lorengau,-2.0226,147.2712,27.200000000000045,79,100,3.14,PG,1722024534
21,petropavlovsk-kamchatsky,53.0452,158.6483,9.330000000000041,100,75,2.0,RU,1722024536
22,pangkalanbuun,-2.6833,111.6167,22.24000000000001,100,10,0.72,ID,1722024537
23,bambanglipuro,-7.95,110.2833,23.77000000000004,88,100,4.64,ID,1722024538
24,guixi,28.2886,117.2133,25.27000000000004,98,100,2.25,CN,1722024539
25,papao,-17.75,-149.55,26.82000000000005,68,94,6.72,PF,1722024540
26,port elizabeth,-33.918,25.5701,11.840000000000032,93,2,2.81,ZA,1722024541
27,stanley,54.868,-1.6985,14.840000000000032,73,0,2.57,GB,1722024543
28,harper,4.375,-7.7169,24.58000000000004,85,100,5.09,LR,1722024544
29,adamstown,-25.066,-130.1015,20.30000000000001,73,100,5.92,PN,1722024545
30,waitangi,-43.9535,-176.5597,8.230000000000018,83,3,3.0,NZ,1722024546
31,hamilton,39.1834,-84.5333,30.140000000000043,43,0,4.12,US,1722024276
32,den burg,53.0542,4.7972,18.310000000000002,88,20,2.06,NL,1722024549
33,hithadhoo,-0.6,73.0833,28.950000000000045,70,85,3.77,MV,1722024551
34,badger,64.8,-147.5333,20.140000000000043,76,100,4.12,US,1722024552
35,maceio,-9.6658,-35.7353,26.689999999999998,65,40,5.14,BR,1722024553
36,rongelap,11.1635,166.8941,28.07000000000005,78,61,8.54,MH,1722024554
37,yellowknife,62.456,-114.3525,24.670000000000016,51,100,7.6,CA,1722024555
38,tura,25.5198,90.2201,25.83000000000004,96,100,2.88,IN,1722024556
39,sanctuary point,-35.1114,150.629,7.330000000000041,70,39,2.22,AU,1722024557
40,edinburgh of the seven seas,-37.0676,-12.3116,10.75,60,44,3.64,SH,1722024558
41,enewetak,11.3474,162.3373,28.629999999999995,78,100,9.53,MH,1722024560
42,isafjordur,66.0755,-23.124,7.5400000000000205,93,99,2.64,IS,1722024561
43,ratnagiri,16.9833,73.3,27.230000000000018,88,100,8.1,IN,1722024562
44,blythe,33.6103,-114.5964,42.25,24,40,3.09,US,1722024563
45,cumra,37.5732,32.7745,21.08000000000004,51,1,7.3,TR,1722024564
46,wanning,18.8003,110.3967,26.650000000000034,94,100,4.24,CN,1722024565
47,lata,40.1629,-8.3327,19.49000000000001,90,50,1.77,PT,1722024566
48,tsiombe,-25.3,45.4833,17.410000000000025,71,0,1.82,MG,1722024568
49,sitka,57.0531,-135.33,15.939999999999998,72,75,1.54,US,1722024569
50,albany,42.6001,-73.9662,27.79000000000002,47,4,0.45,US,1722024339
51,invercargill,-46.4,168.35,10.010000000000048,96,100,0.98,NZ,1722024571
52,pemangkat,1.1667,108.9667,26.110000000000014,87,49,4.25,ID,1722024572
53,chonchi,-42.6128,-73.8092,8.560000000000002,81,31,5.04,CL,1722024573
54,kapuskasing,49.4169,-82.4331,27.700000000000045,32,99,4.31,CA,1722024574
55,lianzhou,24.7811,112.3825,26.220000000000027,95,100,0.39,CN,1722024576
56,tiksi,71.6872,128.8694,5.470000000000027,74,35,1.48,RU,1722024577
57,la passe,45.5549,-0.8967,24.129999999999995,91,100,3.52,FR,1722024578
58,fort morgan,40.2503,-103.8,34.68000000000001,27,0,4.12,US,1722024580
59,geraldton,-28.7667,114.6,9.230000000000018,100,0,5.14,AU,1722024581
60,papatowai,-46.5619,169.4708,10.870000000000005,88,100,1.72,NZ,1722024582
61,ushuaia,-54.8,-68.3,-0.2799999999999727,93,100,1.56,AR,1722024584
62,qaqortoq,60.7167,-46.0333,5.100000000000023,75,56,4.73,GL,1722024585
63,longyearbyen,78.2186,15.6401,8.910000000000025,87,75,1.54,SJ,1722024587
64,myitkyina,25.3833,97.4,24.620000000000005,100,100,0.63,MM,1722024588
65,susuman,62.7833,148.1667,9.180000000000007,59,7,0.56,RU,1722024589
66,moldava nad bodvou,48.6143,20.9996,19.340000000000032,68,0,1.03,SK,1722024591
67,la ceiba,15.7597,-86.7822,29.900000000000034,79,75,5.14,HN,1722024592
68,priargunsk,50.3691,119.1012,18.970000000000027,79,100,2.5,RU,1722024593
69,thompson,55.7435,-97.8558,27.090000000000032,74,75,5.66,CA,1722024594
70,puerto ayora,-0.7393,-90.3518,24.980000000000018,92,39,2.68,EC,1722024516
71,margate,51.3813,1.3862,17.610000000000014,70,64,6.05,GB,1722024598
72,"laikit, laikit ii (dimembe)",1.4792,124.9735,21.470000000000027,94,20,0.51,ID,1722024599
73,nanganga,-10.3833,39.15,18.160000000000025,91,4,1.77,TZ,1722024601
74,iqaluit,63.7506,-68.5145,6.5,70,95,12.52,CA,1722024602
75,kodiak,57.79,-152.4072,13.730000000000018,94,100,2.57,US,1722024603
76,batouri,4.4333,14.3667,22.710000000000036,80,100,1.41,CM,1722024605
77,klyuchi,52.2667,79.1667,23.650000000000034,63,99,2.91,RU,1722024606
78,ocean shores,46.9737,-124.1563,21.27000000000004,73,0,5.66,US,1722024607
79,sao joao da barra,-21.6403,-41.0511,26.05000000000001,78,3,7.29,BR,1722024608
80,kegeyli shahar,42.7767,59.6078,26.05000000000001,29,6,4.04,UZ,1722024609
81,gaiman,-43.2897,-65.4929,12.480000000000018,25,0,7.74,AR,1722024610
82,tambovka,50.0969,128.0489,17.950000000000045,84,99,4.0,RU,1722024612
83,sakakah,29.9697,40.2064,31.760000000000048,19,0,2.09,SA,1722024613
84,saudarkrokur,65.7461,-19.6394,8.980000000000018,93,100,0.22,IS,1722024614
85,fale old settlement,-9.3852,-171.2468,27.860000000000014,67,92,1.19,TK,1722024615
86,kendari,-3.945,122.4989,23.010000000000048,96,25,0.65,ID,1722024616
87,lamu,-2.2717,40.902,24.210000000000036,87,28,6.86,KE,1722024617
88,port macquarie,-31.4333,152.9167,8.930000000000007,99,37,0.45,AU,1722024619
89,fort mcmurray,56.7268,-111.381,15.82000000000005,95,92,4.17,CA,1722024620
90,wailua homesteads,22.0669,-159.378,28.24000000000001,76,100,8.75,US,1722024621
91,valparaiso,-33.0393,-71.6273,15.129999999999995,68,0,7.72,CL,1722024281
92,anshun,26.25,105.9333,21.090000000000032,88,82,1.22,CN,1722024623
93,happy valley-goose bay,53.3168,-60.3315,18.689999999999998,36,8,1.82,CA,1722024624
94,balabac,7.9868,117.0645,27.08000000000004,83,100,2.47,PH,1722024626
95,bamboo flat,11.7,92.7167,27.439999999999998,85,100,9.01,IN,1722024627
96,susanville,40.4163,-120.653,31.480000000000018,8,0,6.58,US,1722024472
97,san antonio de pale,-1.4014,5.6325,23.350000000000023,85,93,5.18,GQ,1722024630
98,motygino,58.1831,94.7592,16.870000000000005,83,3,2.09,RU,1722024631
99,port mathurin,-19.6833,63.4167,22.760000000000048,74,0,8.26,MU,1722024632
100,bardai,11.65,7.2333,23.150000000000034,86,98,3.17,NG,1722024634
101,aquiraz,-3.9014,-38.3911,27.32000000000005,78,61,5.42,BR,1722024635
102,tagiura,32.8817,13.3506,26.260000000000048,73,0,6.04,LY,1722024636
103,angra do heroismo,38.65,-27.2167,25.060000000000002,92,73,3.13,PT,1722024637
104,yanam,16.7333,82.2167,24.28000000000003,89,100,5.27,IN,1722024638
105,pechora,65.1472,57.2244,11.450000000000045,68,69,2.63,RU,1722024639
106,greymouth,-42.4667,171.2,9.950000000000045,94,67,0.75,NZ,1722024641
107,feira de santana,-12.2667,-38.9667,25.680000000000007,54,86,4.72,BR,1722024512
108,lihue,21.9789,-159.3672,28.58000000000004,75,100,8.75,US,1722024643
109,kailua-kona,19.6406,-155.9956,27.980000000000018,79,0,4.63,US,1722024644
110,kenora,49.8167,-94.4337,31.480000000000018,46,99,6.83,CA,1722024521
111,atafu village,-8.5421,-172.5159,27.860000000000014,68,64,0.69,TK,1722024646
112,batyrevo,55.0675,47.6111,13.990000000000009,63,100,3.42,RU,1722024647
113,labytnangi,66.6572,66.4183,11.0,83,100,1.32,RU,1722024649
114,hovd,48.0056,91.6419,20.379999999999995,48,44,1.91,MN,1722024650
115,richards bay,-28.783,32.0377,17.120000000000005,89,0,1.62,ZA,1722024651
116,iskateley,67.6803,53.1512,7.2900000000000205,82,100,3.69,RU,1722024652
117,saint-pierre,-21.3393,55.4781,20.82000000000005,52,0,2.57,RE,1722024653
118,aguilares,-27.4338,-65.6143,23.430000000000007,24,1,1.97,AR,1722024655
119,colonia,50.9333,6.95,22.120000000000005,74,75,1.54,DE,1722024656
120,tapejara,-28.0681,-52.0139,18.660000000000025,83,100,1.1,BR,1722024657
121,san patricio,28.017,-97.5169,28.28000000000003,53,63,3.85,US,1722024658
122,ma'rib,15.4591,45.3253,32.200000000000045,33,100,5.11,YE,1722024659
123,hinton,53.4001,-117.5857,18.010000000000048,43,77,6.12,CA,1722024661
124,roma,43.2128,-75.4557,26.950000000000045,45,40,5.14,US,1722024662
125,namibe,-15.1961,12.1522,16.78000000000003,81,64,1.35,AO,1722024663
126,sebastopol,44.6,33.5333,24.439999999999998,49,100,0.89,UA,1722024664
127,i-n-salah,27.1935,2.4607,35.460000000000036,11,2,5.33,DZ,1722024665
128,lebu,-37.6167,-73.65,9.560000000000002,60,5,5.52,CL,1722024666
129,crane,31.3974,-102.3501,33.950000000000045,23,0,4.92,US,1722024668
130,salinopolis,-0.6136,-47.3561,27.870000000000005,72,45,6.15,BR,1722024669
131,lake city,30.1897,-82.6393,31.03000000000003,53,55,0.62,US,1722024670
132,bengkulu,-3.8004,102.2655,23.660000000000025,88,0,1.99,ID,1722024671
133,butterworth,5.3991,100.3638,29.02000000000004,79,20,0.0,MY,1722024672
134,tambopata,-12.7333,-69.1833,32.94,52,20,2.57,PE,1722024673
135,kayyerkan,69.3786,87.7439,14.270000000000039,90,7,3.43,RU,1722024674
136,rabo de peixe,37.8,-25.5833,24.730000000000018,83,20,5.66,PT,1722024423
137,moranbah,-22.0016,148.0466,15.400000000000034,91,100,2.77,AU,1722024677
138,jamestown,42.097,-79.2353,25.29000000000002,46,0,1.54,US,1722024438
139,khovd,48.0056,91.6419,20.379999999999995,48,44,1.91,MN,1722024679
140,vorgashor,67.5833,63.95,8.5,90,100,1.8,RU,1722024680
141,bredasdorp,-34.5322,20.0403,9.420000000000016,88,0,2.81,ZA,1722024681
142,vilyuchinsk,52.9306,158.4028,10.150000000000034,88,65,0.82,RU,1722024682
143,northam,51.0333,-4.2167,15.770000000000039,86,1,3.41,GB,1722024683
144,nerchinsk,51.9833,116.5833,20.220000000000027,60,100,1.02,RU,1722024685
145,mejit,10.2753,170.8646,28.170000000000016,82,100,8.65,MH,1722024686
146,ginir,7.1333,40.7,16.189999999999998,85,61,4.12,ET,1722024687
147,tobruk,32.0836,23.9764,26.900000000000034,83,0,6.03,LY,1722024688
148,cabedelo,-6.9811,-34.8339,26.370000000000005,79,9,6.79,BR,1722024689
149,kerikeri,-35.2268,173.9474,6.830000000000041,92,17,1.91,NZ,1722024690
150,xilin hot,43.9667,116.0333,19.52000000000004,61,46,3.53,CN,1722024692
151,fabens,31.5023,-106.1586,35.60000000000002,17,9,2.25,US,1722024694
152,punta arenas,-53.15,-70.9167,3.0100000000000477,87,75,12.86,CL,1722024695
153,minot air force base,48.4209,-101.3391,25.100000000000023,41,0,3.09,US,1722024696
154,grand-lahou,5.1367,-5.0242,24.129999999999995,92,79,4.34,CI,1722024697
155,mount isa,-20.7333,139.5,18.870000000000005,77,100,2.57,AU,1722024699
156,arkhangel'sk,64.5401,40.5433,15.060000000000002,67,0,2.0,RU,1722024701
157,boonton,40.9026,-74.4071,29.390000000000043,43,0,1.54,US,1722024702
158,mahina,-17.5065,-149.489,26.870000000000005,57,40,1.54,PF,1722024612
159,codrington,-38.2667,141.9667,8.230000000000018,95,100,3.64,AU,1722024705
160,dudinka,69.4058,86.1778,14.600000000000023,95,0,3.91,RU,1722024706
161,mananjary,-21.2167,48.3333,18.640000000000043,83,0,1.94,MG,1722024707
162,tomelloso,39.1522,-3.0243,29.180000000000007,29,18,5.99,ES,1722024708
163,abepura,-2.6333,140.5833,24.450000000000045,100,20,0.51,ID,1722024710
164,kampene,-3.6,26.6667,23.870000000000005,34,94,0.78,CD,1722024712
165,pathein,16.7833,94.7333,25.890000000000043,91,100,5.56,MM,1722024713
166,chinde,26.8212,87.7095,26.310000000000002,86,84,2.47,NP,1722024714
167,suva,-18.1416,178.4415,20.710000000000036,94,75,3.09,FJ,1722024715
168,choix,26.7092,-108.3219,37.879999999999995,31,98,4.02,MX,1722024716
169,rio gallegos,-51.6226,-69.2181,3.4399999999999977,70,71,10.47,AR,1722024487
170,hotan,37.0997,79.9269,29.08000000000004,22,0,0.82,CN,1722024719
171,mermoz boabab,14.7065,-17.4758,28.310000000000002,82,100,3.4,SN,1722024720
172,korla,41.7597,86.1469,27.670000000000016,33,18,4.31,CN,1722024721
173,hermanus,-34.4187,19.2345,11.0,84,0,5.62,ZA,1722024722
174,rio grande,-32.035,-52.0986,17.060000000000002,77,0,3.0,BR,1722024723
175,tarawa,1.419,172.984,29.05000000000001,74,20,4.12,KI,1722024726
176,tazovsky,67.4667,78.7,9.090000000000032,97,94,2.85,RU,1722024727
177,nezhinka,51.7676,55.3694,11.090000000000032,87,0,4.0,RU,1722024728
178,east london,-33.0153,27.9116,15.730000000000018,76,29,3.27,ZA,1722024729
179,citra,34.7965,-96.3764,31.470000000000027,46,66,3.82,US,1722024730
180,shangqiu,34.45,115.65,25.420000000000016,98,100,4.82,CN,1722024731
181,ilulissat,69.2167,-51.1,4.939999999999998,74,100,4.38,GL,1722024733
182,st. john's,47.5649,-52.7093,18.420000000000016,93,100,3.09,CA,1722024734
183,illizi,26.4833,8.4667,32.39000000000004,29,2,8.25,DZ,1722024735
184,toliara,-23.35,43.6667,18.939999999999998,73,0,2.76,MG,1722024736
185,mar del plata,-38.0023,-57.5575,11.400000000000034,90,4,4.92,AR,1722024692
186,ta`u,-14.2336,-169.5144,27.100000000000023,79,27,6.77,AS,1722024738
187,katsuura,35.1333,140.3,25.689999999999998,90,100,3.87,JP,1722024554
188,m'sila,35.7058,4.5419,33.29000000000002,20,41,4.69,DZ,1722024741
189,inda silase,14.1031,38.2829,17.670000000000016,83,100,1.24,ET,1722024742
190,saldanha,-33.0117,17.9442,12.180000000000007,90,8,4.5,ZA,1722024743
191,zouerate,22.7187,-12.4521,39.629999999999995,13,8,5.02,MR,1722024744
192,avarua,-21.2078,-159.775,25.03000000000003,78,40,7.72,CK,1722024745
193,vila velha,-20.3297,-40.2925,24.970000000000027,80,20,7.72,BR,1722024450
194,san andres,12.5847,-81.7006,31.010000000000048,74,40,4.63,CO,1722024747
195,hasaki,35.7333,140.8333,26.220000000000027,86,94,2.3,JP,1722024749
196,boise,43.6135,-116.2035,29.010000000000048,27,0,3.09,US,1722024631
197,warrnambool,-38.3833,142.4833,9.379999999999995,92,100,6.91,AU,1722024751
198,namie,37.4833,141.0,23.879999999999995,93,93,0.71,JP,1722024752
199,saipan,15.1355,145.701,27.80000000000001,76,98,1.98,MP,1722024753
200,okulovka,58.4008,33.2908,17.970000000000027,80,64,1.95,RU,1722024754
201,wanxian,30.8039,108.3897,26.920000000000016,93,92,1.16,CN,1722024755
202,prado,-17.3411,-39.2208,23.900000000000034,74,0,2.74,BR,1722024757
203,tamandare,-8.7597,-35.1047,24.58000000000004,72,23,4.39,BR,1722024759
204,ribeira grande,38.5167,-28.7,25.220000000000027,88,40,6.17,PT,1722024760
205,al ghayzah,16.2079,52.176,25.590000000000032,90,100,7.45,YE,1722024761
206,dedza,-14.3779,34.3332,13.210000000000036,24,0,0.39,MW,1722024762
207,polva,58.0603,27.0694,19.99000000000001,87,22,1.53,EE,1722024764
208,lone grove,34.1754,-97.2628,30.879999999999995,55,75,3.6,US,1722024765
209,melo,-32.3667,-54.1833,16.82000000000005,77,0,3.46,UY,1722024766
210,lompoc,34.6391,-120.4579,34.08000000000004,61,0,3.13,US,1722024768
211,keflavik,64.0049,-22.5624,12.950000000000045,100,100,7.2,IS,1722024769
212,nar'yan-mar,67.6713,53.087,7.390000000000043,82,100,3.73,RU,1722024771
213,axim,4.8699,-2.2405,24.260000000000048,90,55,4.07,GH,1722024772
214,dwarka,22.2394,68.9678,27.83000000000004,87,100,9.04,IN,1722024773
215,demopolis,32.5176,-87.8364,28.970000000000027,65,0,2.06,US,1722024774
216,lukolela,-1.0605,17.1821,24.689999999999998,53,66,1.49,CD,1722024775
217,canutama,-6.5339,-64.3831,38.450000000000045,21,100,1.9,BR,1722024776
218,mek'ele,13.4967,39.4753,16.49000000000001,88,98,2.24,ET,1722024777
219,taber,49.8167,-112.1518,28.510000000000048,12,0,6.3,CA,1722024778
220,romanovo,52.6182,81.2271,21.83000000000004,78,4,3.08,RU,1722024780
221,dazhou,31.2159,107.5009,25.58000000000004,91,87,1.75,CN,1722024781
222,tralee,52.2704,-9.7026,13.629999999999995,80,100,2.85,IE,1722024782
223,les cayes,18.2,-73.75,29.99000000000001,69,100,5.31,HT,1722024783
224,selfoss,63.9331,-20.9971,13.360000000000014,76,21,4.22,IS,1722024784
225,margaret river,-33.95,115.0667,12.900000000000034,68,22,3.18,AU,1722024785
226,port-gentil,-0.7193,8.7815,24.980000000000018,78,100,4.12,GA,1722024786
227,ola,59.5833,151.2833,12.439999999999998,57,4,4.18,RU,1722024787
228,gogrial,8.5332,28.1004,25.82000000000005,74,17,3.17,SS,1722024789
229,ribeira brava,32.65,-17.0667,25.400000000000034,84,0,1.83,PT,1722024790
230,colares,38.7992,-9.4469,22.55000000000001,82,20,8.75,PT,1722024791
231,saint-joseph,-21.3667,55.6167,20.210000000000036,77,5,2.3,RE,1722024792
232,pushkinskiye gory,57.0209,28.9103,18.950000000000045,78,54,1.63,RU,1722024793
233,port alfred,-33.5906,26.891,14.82000000000005,78,9,3.79,ZA,1722024794
234,renqiu,38.6989,116.0936,24.230000000000018,90,0,2.32,CN,1722024796
235,turinsk,58.0458,63.696,13.100000000000023,98,100,6.13,RU,1722024797
236,lautoka,-17.6167,177.4667,20.920000000000016,83,40,1.54,FJ,1722024648
237,ciudad melchor muzquiz,27.8833,-101.5167,32.700000000000045,36,10,3.43,MX,1722024799
238,ivanec,46.2231,16.12,19.58000000000004,61,100,1.51,HR,1722024800
239,atchison,39.563,-95.1216,33.51000000000005,62,5,4.3,US,1722024801
240,okha,53.5739,142.9478,14.879999999999995,92,14,3.01,RU,1722024802
241,kourou,5.1552,-52.6478,25.03000000000003,76,96,1.97,GF,1722024803
242,maintirano,-18.0667,44.0167,22.610000000000014,73,0,5.35,MG,1722024806
243,pisco,-13.7,-76.2167,18.03000000000003,72,0,5.14,PE,1722024807
244,puerto lempira,15.2667,-83.7667,30.350000000000023,67,59,5.72,HN,1722024808
245,puerto leguizamo,-0.1934,-74.7819,32.150000000000034,46,35,1.73,CO,1722024809
246,fort st. john,56.2499,-120.8529,18.939999999999998,67,100,4.72,CA,1722024810
247,constantia,44.1833,28.65,21.379999999999995,69,0,3.49,RO,1722024811
248,ancud,-41.8697,-73.8203,8.760000000000048,85,64,9.53,CL,1722024813
249,mata-utu,-13.2816,-176.1745,27.810000000000002,76,5,6.07,WF,1722024814
250,revda,56.801,59.9303,10.689999999999998,98,100,5.77,RU,1722024815
251,weno,7.4515,151.8468,24.970000000000027,88,100,1.54,FM,1722024816
252,new norfolk,-42.7826,147.0587,9.720000000000027,95,77,1.76,AU,1722024817
253,praia da vitoria,38.7333,-27.0667,24.860000000000014,92,54,5.0,PT,1722024818
254,sinabang,2.4803,96.3801,27.04000000000002,83,100,2.3,ID,1722024819
255,howrah,22.5892,88.3103,29.0,89,40,3.09,IN,1722024821
256,balotra,25.8333,72.2333,31.170000000000016,68,99,7.93,IN,1722024822
257,tromso,69.6496,18.957,18.010000000000048,72,0,1.54,NO,1722024823
258,peace river,56.2501,-117.286,16.170000000000016,77,100,5.14,CA,1722024824
259,udachny,66.4167,112.4,11.560000000000002,60,65,1.68,RU,1722024825
260,ibresi,55.2961,47.0394,12.629999999999995,68,100,2.78,RU,1722024826
261,uturoa,-16.7333,-151.4333,25.310000000000002,66,27,7.1,PF,1722024827
262,gadzhiyevo,69.2551,33.3362,17.470000000000027,70,8,1.54,RU,1722024830
263,arraial do cabo,-22.9661,-42.0278,23.920000000000016,73,0,3.6,BR,1722024831
264,san pedro pochutla,15.7333,-96.4667,33.170000000000016,48,63,4.51,MX,1722024832
265,mariinsk,56.2139,87.7472,19.510000000000048,85,34,2.69,RU,1722024834
266,south hedland,-20.4089,118.5983,10.960000000000036,30,0,4.12,AU,1722024837
267,carnarvon,-24.8667,113.6333,15.960000000000036,63,0,5.51,AU,1722024838
268,nyurba,63.2842,118.3319,12.04000000000002,93,60,1.33,RU,1722024839
269,kodinsk,58.6881,99.1844,15.910000000000025,94,8,0.96,RU,1722024840
270,aitape,-3.1374,142.3475,25.189999999999998,88,100,2.27,PG,1722024841
271,alice springs,-23.7,133.8833,7.75,93,38,2.06,AU,1722024842
272,broken hill,-31.95,141.4333,8.310000000000002,47,0,3.37,AU,1722024843
273,lauro de freitas,-12.8944,-38.3272,26.010000000000048,73,40,3.6,BR,1722024845
274,west island,-12.1568,96.8225,25.99000000000001,89,40,3.6,CC,1722024846
275,haiku-pauwela,20.9219,-156.3051,27.360000000000014,72,20,7.72,US,1722024847
276,yarmouth,41.7057,-70.2286,27.560000000000002,58,0,3.09,US,1722024848
277,horta,38.5333,-28.6333,24.80000000000001,91,40,6.17,PT,1722024849
278,lyantor,61.6195,72.1555,14.78000000000003,77,100,5.26,RU,1722024850
279,meadow lake,34.8014,-106.5436,33.370000000000005,31,59,3.97,US,1722024851
280,cockburn town,21.4612,-71.1419,28.75,85,100,7.35,TC,1722024852
281,trujillo,-8.116,-79.03,18.980000000000018,72,0,4.63,PE,1722024828
282,hadibu,12.65,54.0333,25.890000000000043,78,100,9.34,YE,1722024855
283,karangampel,-6.4622,108.4519,24.33000000000004,75,7,3.41,ID,1722024856
284,kristiansund,63.1115,7.732,14.360000000000014,93,100,1.03,NO,1722024857
285,lucapa,-8.4192,20.7447,21.52000000000004,13,1,1.67,AO,1722024858
286,georgetown,5.4112,100.3354,28.960000000000036,79,20,0.0,MY,1722024860
287,alotau,-10.3069,150.4462,21.840000000000032,90,100,1.77,PG,1722024861
288,alofi,-19.0595,-169.9187,22.939999999999998,88,100,3.6,NU,1722024862
289,ar ruways,24.1103,52.7306,35.35000000000002,36,7,2.1,AE,1722024863
290,lubango,-14.9172,13.4925,14.900000000000034,47,0,1.01,AO,1722024864
291,bulolo,-7.2,146.65,21.470000000000027,98,99,0.88,PG,1722024865
292,callao,-12.0667,-77.15,23.010000000000048,77,100,4.63,PE,1722024680
293,markala,13.7021,-6.0659,28.860000000000014,71,98,4.6,ML,1722024868
294,vadso,70.0744,29.7487,24.49000000000001,77,0,4.12,NO,1722024870
295,cartagena,10.3997,-75.5144,25.79000000000002,94,75,2.57,CO,1722024871
296,sompeta,18.9333,84.6,26.260000000000048,91,100,3.3,IN,1722024872
297,alappuzha,9.49,76.3264,27.05000000000001,88,100,6.39,IN,1722024873
298,tocopilla,-22.092,-70.1979,19.510000000000048,68,21,5.39,CL,1722024874
299,taroa,8.7058,171.2275,28.510000000000048,80,100,8.12,MH,1722024876
300,nuuk,64.1835,-51.7216,5.340000000000032,87,100,11.32,GL,1722024877
301,xiazhuang,34.9161,118.6389,25.77000000000004,98,100,4.66,CN,1722024878
302,kiunga,-6.1219,141.2906,22.950000000000045,100,100,0.78,PG,1722024879
303,steffisburg,46.7781,7.6325,22.07000000000005,68,29,0.45,CH,1722024880
304,gifford,27.6753,-80.4092,33.360000000000014,65,20,4.12,US,1722024881
305,nova sintra,14.8667,-24.7167,25.980000000000018,79,24,0.81,CV,1722024882
306,tofol,5.3248,163.0078,28.350000000000023,78,100,6.29,FM,1722024884
307,leh,34.1667,77.5833,17.090000000000032,33,3,3.71,IN,1722024885
308,katima mulilo,-17.5,24.2667,18.370000000000005,13,0,1.46,NA,1722024886
309,qamdo,31.1667,97.2333,8.57000000000005,91,100,1.69,CN,1722024887
310,ballina,-28.8667,153.5667,11.550000000000011,81,6,1.68,AU,1722024888
311,peniche,39.3558,-9.3811,21.27000000000004,94,29,6.85,PT,1722024889
312,bhabhua,25.05,83.6167,31.910000000000025,67,100,2.3,IN,1722024890
313,ambon,-3.6954,128.1814,26.04000000000002,95,20,1.03,ID,1722024891
314,whitehorse,60.7161,-135.0538,18.939999999999998,63,20,6.69,CA,1722024893
315,faya-largeau,17.9257,19.1043,37.18000000000001,27,23,4.01,TD,1722024894
316,quellon,-43.1167,-73.6167,8.640000000000043,81,43,7.53,CL,1722024895
317,polyarnyy,69.1989,33.4478,17.439999999999998,68,9,1.58,RU,1722024896
318,volodymyr-volynskyi,50.8525,24.3236,17.78000000000003,82,53,1.04,UA,1722024897
319,waingapu,-9.6567,120.2641,23.120000000000005,81,0,2.21,ID,1722024898
320,redencao,-4.2258,-38.7306,26.230000000000018,67,42,3.42,BR,1722024899
321,saint-denis,48.9167,2.3333,20.27000000000004,93,75,2.06,FR,1722024901
322,tommot,58.9564,126.2925,19.5,77,1,0.68,RU,1722024902
323,puerto baquerizo moreno,-0.9,-89.6,22.55000000000001,73,75,8.75,EC,1722024903
324,naracoorte,-36.9579,140.7383,7.800000000000011,97,100,2.66,AU,1722024904
325,trairi,-3.2778,-39.2689,26.090000000000032,73,63,6.09,BR,1722024647
326,flin flon,54.7682,-101.865,19.910000000000025,49,75,10.8,CA,1722024906
327,gonzaga,44.9498,10.8209,28.710000000000036,62,0,4.01,IT,1722024907
328,aldinga beach,-35.2793,138.4604,10.980000000000018,85,100,4.77,AU,1722024909
329,divrigi,39.371,38.1137,23.730000000000018,48,56,3.01,TR,1722024911
330,ramapuram,13.1167,79.2,27.710000000000036,60,100,7.79,IN,1722024912
331,pacific grove,36.6177,-121.9166,25.680000000000007,79,0,5.14,US,1722024913
332,makaha,21.4694,-158.2175,28.950000000000045,57,40,4.63,US,1722024914
333,ingeniero jacobacci,-41.3427,-69.5448,4.1299999999999955,44,3,10.84,AR,1722024918
334,zhaotong,27.3167,103.7167,18.110000000000014,95,33,1.93,CN,1722024919
335,rosa zarate,0.3333,-79.4667,28.870000000000005,65,86,2.77,EC,1722024920
336,dalnegorsk,44.5604,135.5701,15.400000000000034,100,100,1.03,RU,1722024921
337,klaksvik,62.2266,-6.589,11.510000000000048,89,100,7.78,FO,1722024922
338,carutapera,-1.195,-46.02,27.660000000000025,71,82,5.08,BR,1722024924
339,long beach,33.767,-118.1892,34.51000000000005,57,0,3.6,US,1722024726
340,yuzhno-kurilsk,44.0306,145.8556,12.810000000000002,94,18,1.66,RU,1722024926
341,kamloops,50.6665,-120.3192,23.75,32,9,0.69,CA,1722024462
342,machilipatnam,16.1667,81.1333,25.360000000000014,87,100,2.78,IN,1722024928
343,polokwane,-23.9045,29.4688,10.470000000000027,82,29,2.57,ZA,1722024930
344,hulan,45.9833,126.6,23.060000000000002,97,89,5.05,CN,1722024932
345,pangody,65.85,74.4859,8.390000000000043,94,55,2.02,RU,1722024933
346,xai-xai,-25.0519,33.6442,17.74000000000001,82,0,4.29,MZ,1722024934
347,tolanaro,-25.0319,46.9987,20.04000000000002,83,20,1.03,MG,1722024935
348,aripuana,-9.1667,-60.6333,36.910000000000025,18,3,1.69,BR,1722024936
349,zinjibar,13.1287,45.3807,29.150000000000034,75,81,3.09,YE,1722024937
350,le vauclin,14.5452,-60.8388,30.03000000000003,74,75,6.17,MQ,1722024938
351,merizo village,13.2658,144.6691,25.32000000000005,82,100,2.09,GU,1722024940
352,nova olinda do norte,-3.8881,-59.0942,29.200000000000045,61,93,0.84,BR,1722024941
353,san julian,21.0167,-102.1667,17.200000000000045,83,100,1.69,MX,1722024942
354,nanpara,27.8667,81.5,30.840000000000032,70,99,1.48,IN,1722024943
355,kargasok,59.0556,80.8572,15.700000000000045,83,0,2.72,RU,1722024944
356,la ronge,55.1001,-105.2842,15.140000000000043,72,100,7.72,CA,1722024945
357,tabou,4.423,-7.3528,24.58000000000004,86,100,4.73,CI,1722024948
358,coahuayana de hidalgo,18.7,-103.6583,33.14000000000004,52,79,3.5,MX,1722024949
359,lodwar,3.1191,35.5973,27.610000000000014,59,85,5.16,KE,1722024951
360,ourinhos,-22.9789,-49.8706,25.30000000000001,35,100,1.5,BR,1722024839
361,andovoranto,-18.95,49.1,19.100000000000023,91,5,1.86,MG,1722024953
362,griffith,41.5284,-87.4237,28.30000000000001,52,0,3.6,US,1722024955
363,kununurra,-15.7667,128.7333,22.99000000000001,73,40,1.54,AU,1722024702
364,tomatlan,19.9333,-105.25,30.210000000000036,75,98,2.89,MX,1722024957
365,gaspe,48.8334,-64.4819,21.120000000000005,49,40,3.6,CA,1722024877
366,ust-nera,64.5667,143.2,13.050000000000011,52,15,1.48,RU,1722024959
367,aswan,24.0934,32.907,35.72000000000003,20,100,7.01,EG,1722024960
368,ceeldheer,3.8488,47.1806,24.370000000000005,88,81,6.34,SO,1722024961
369,luderitz,-26.6481,15.1594,12.920000000000016,79,62,2.82,NA,1722024962
370,palmer,42.1584,-72.3287,28.970000000000027,39,75,6.17,US,1722024964
371,jiayuguan,39.8167,98.3,24.340000000000032,36,100,2.41,CN,1722024965
372,al muwayh,22.4333,41.7583,28.57000000000005,26,100,6.5,SA,1722024966
373,asau,46.4333,26.4,17.510000000000048,93,4,2.32,RO,1722024967
374,champerico,14.3,-91.9167,35.30000000000001,71,100,3.13,GT,1722024968
375,aljezur,37.3191,-8.8033,18.83000000000004,95,7,6.87,PT,1722024969
376,bondo,3.8146,23.6866,21.360000000000014,93,77,1.01,CD,1722024971
377,skeldon,5.8833,-57.1333,27.99000000000001,78,85,2.5,GY,1722024972
378,lardero,42.4269,-2.4615,26.400000000000034,54,0,1.54,ES,1722024973
379,kenai,60.5544,-151.2583,13.340000000000032,100,100,5.14,US,1722024974
380,dunedin,-45.8742,170.5036,12.110000000000014,62,99,2.33,NZ,1722024975
381,mukalla,14.5425,49.1242,30.189999999999998,63,68,1.23,YE,1722024976
382,bath,51.3779,-2.3591,17.010000000000048,73,0,2.94,GB,1722024792
383,port blair,11.6667,92.75,29.02000000000004,84,75,5.14,IN,1722024978
384,sisimiut,66.9395,-53.6735,5.850000000000023,73,100,9.03,GL,1722024980
385,taro,-8.3862,115.28,18.75,100,67,0.43,ID,1722024981
386,mount pearl,47.5166,-52.7813,17.960000000000036,93,75,3.6,CA,1722024982
387,bikenibeu village,1.3673,173.1241,28.980000000000018,74,20,4.12,KI,1722024983
388,juan griego,11.0817,-63.9655,32.07000000000005,66,0,8.23,VE,1722024984
389,nantucket,41.2835,-70.0995,26.08000000000004,53,0,3.6,US,1722024868
390,emerald,-23.5333,148.1667,13.520000000000039,86,100,1.83,AU,1722024986
391,namdrik,5.5994,168.1028,28.470000000000027,77,100,5.79,MH,1722024987
392,port said,31.2565,32.2841,28.08000000000004,71,0,7.14,EG,1722024989
393,aguadas,5.6116,-75.4562,23.5,44,81,0.35,CO,1722024990
394,khandyga,62.6667,135.6,14.640000000000043,94,100,1.73,RU,1722024991
395,novaya igirma,57.1334,103.9112,17.08000000000004,92,4,1.34,RU,1722024992
396,island harbour,50.724,-1.2758,17.32000000000005,67,2,0.89,GB,1722024993
397,afif,23.9065,42.9172,29.730000000000018,14,5,3.78,SA,1722024994
398,hammerfest,70.6634,23.6821,22.25,64,0,2.06,NO,1722024995
399,montagu,-40.7667,144.9667,8.879999999999995,91,100,2.14,AU,1722024997
400,moree,-29.4667,149.85,13.75,93,100,4.45,AU,1722024998
401,aglona,56.1333,27.0167,17.810000000000002,86,33,1.51,LV,1722024999
402,makinsk,52.6292,70.4169,14.480000000000018,77,0,3.71,KZ,1722025000
403,shimoda,34.6667,138.95,26.720000000000027,96,99,4.15,JP,1722025001
404,torquay,50.4638,-3.5143,16.710000000000036,83,62,3.4,GB,1722025002
405,celica,-4.1167,-79.95,25.629999999999995,35,6,2.85,EC,1722025003
406,remire-montjoly,4.9167,-52.2667,25.02000000000004,88,0,2.06,GF,1722025005
407,kapa'a,22.0752,-159.319,28.99000000000001,76,100,8.75,US,1722025006
408,ghadamis,30.1337,9.5007,33.370000000000005,16,0,5.28,LY,1722025007
409,ataq,14.5377,46.8319,27.260000000000048,62,99,4.47,YE,1722025008
410,urangan,-25.3,152.9,18.720000000000027,74,83,1.04,AU,1722025009
411,aykhal,66.0,111.5,12.510000000000048,72,100,1.0,RU,1722025011
412,bachi-yurt,43.22,46.2,21.74000000000001,89,100,1.71,RU,1722025013
413,alesund,62.4723,6.1549,15.740000000000009,90,75,2.57,NO,1722025014
414,portland,45.5234,-122.6762,26.629999999999995,47,20,4.12,US,1722025015
415,piti village,13.4626,144.6933,25.49000000000001,92,0,0.0,GU,1722025016
416,el porvenir,13.7617,-87.3458,30.629999999999995,50,53,2.6,HN,1722025017
417,laojunmiao,39.8333,97.7333,22.930000000000007,32,100,5.26,CN,1722025018
418,manggar,-2.8833,108.2667,26.900000000000034,77,8,4.43,ID,1722025019
419,jacmel,18.2342,-72.5347,35.910000000000025,68,100,3.62,HT,1722025020
420,coquimbo,-29.9533,-71.3436,17.210000000000036,56,0,5.14,CL,1722025022
421,saint-felicien,48.6501,-72.4491,25.28000000000003,46,20,5.14,CA,1722025023
422,buon ma thuot,12.6667,108.05,20.980000000000018,95,99,1.0,VN,1722025024
423,darwin,-12.4611,130.8418,24.99000000000001,78,75,2.57,AU,1722025025
424,fort abbas,29.1925,72.8536,35.420000000000016,47,100,5.11,PK,1722025026
425,figuig (centre),32.1089,-1.2286,32.629999999999995,16,70,2.97,MA,1722025027
426,forster,-32.1667,152.5167,12.060000000000002,89,88,2.42,AU,1722025028
427,nogliki,51.8333,143.1667,13.980000000000018,86,0,5.67,RU,1722025030
428,vila franca do campo,37.7167,-25.4333,25.230000000000018,80,5,4.59,PT,1722025031
429,napili-honokowai,20.9708,-156.6705,28.220000000000027,70,45,9.07,US,1722025032
430,mugia,43.1041,-9.2179,22.870000000000005,91,92,7.4,ES,1722025033
431,botoroaga,44.1483,25.5447,23.30000000000001,48,72,4.62,RO,1722025034
432,hinthada,17.6333,95.4667,24.439999999999998,97,100,2.82,MM,1722025035
433,soio,-6.1349,12.3689,20.840000000000032,80,1,3.05,AO,1722025036
434,gizo,-8.103,156.8419,26.660000000000025,82,70,7.71,SB,1722025038
435,sechura,-5.5569,-80.8222,23.79000000000002,57,10,6.79,PE,1722025039
436,savannakhet,16.566,104.751,25.180000000000007,91,100,5.99,LA,1722025040
437,kalmunai,7.4167,81.8167,28.640000000000043,65,100,1.26,LK,1722025041
438,campbell river,50.0163,-125.2446,21.210000000000036,52,75,2.57,CA,1722025042
439,acucena,-19.0731,-42.5464,24.29000000000002,53,18,3.35,BR,1722025043
440,batie,9.8833,-2.9167,24.410000000000025,88,70,2.25,BF,1722025044
441,reggane,26.7158,0.1714,38.10000000000002,10,40,3.76,DZ,1722025045
442,menongue,-14.6585,17.691,15.200000000000045,16,0,1.05,AO,1722025047
443,swakopmund,-22.6833,14.5333,11.660000000000025,82,0,0.45,NA,1722025048
444,bocas del toro,9.3333,-82.25,27.25,77,99,5.51,PA,1722025049
445,san luis,-33.295,-66.3356,16.680000000000007,27,100,3.87,AR,1722024930
446,kangding,30.0513,101.9603,17.439999999999998,99,100,1.36,CN,1722025051
447,sinop,41.7711,34.8709,17.180000000000007,98,100,1.09,TR,1722025052
448,sur,22.5667,59.5289,33.57000000000005,48,100,7.04,OM,1722025053
449,liberal,37.0431,-100.921,33.58000000000004,29,0,7.13,US,1722025055
450,undurkhaan,47.3194,110.6556,16.620000000000005,93,99,2.32,MN,1722025056
451,upington,-28.4478,21.2561,8.700000000000045,32,0,1.87,ZA,1722025057
452,kedougou,12.5579,-12.1743,25.78000000000003,89,100,1.41,SN,1722025058
453,talnakh,69.4865,88.3972,15.310000000000002,81,2,3.41,RU,1722025059
454,luganville,-15.5333,167.1667,23.100000000000023,71,100,5.12,VU,1722025060
455,pollock pines,38.7613,-120.5866,33.07000000000005,17,0,3.13,US,1722025061
456,rundu,-17.9333,19.7667,17.890000000000043,12,0,1.25,NA,1722025063
457,khenifra,32.9333,-5.6667,28.930000000000007,21,0,3.84,MA,1722025064
458,tezu,27.9167,96.1667,25.230000000000018,96,99,2.39,IN,1722025065
459,amasya,40.6667,35.8333,19.82000000000005,93,52,0.96,TR,1722024914
460,divaca,45.6847,13.9703,22.439999999999998,50,6,1.54,SI,1722025067
461,barra de santo antonio,-9.4047,-35.5072,26.600000000000023,71,90,4.29,BR,1722025068
462,awjilah,29.1081,21.2869,31.02000000000004,39,0,7.5,LY,1722025069
463,fortuna,40.5982,-124.1573,17.510000000000048,82,0,5.14,US,1722025071
464,antalaha,-14.9003,50.2788,20.05000000000001,91,18,2.56,MG,1722025033
465,akjoujt,19.6969,-14.4164,32.93000000000001,28,24,7.89,MR,1722025073
466,belyy yar,53.6039,91.3903,19.939999999999998,94,0,1.0,RU,1722025074
467,huarmey,-10.0681,-78.1522,19.939999999999998,70,1,5.09,PE,1722025075
468,betio village,1.358,172.9211,29.02000000000004,70,97,6.3,KI,1722025076
469,meulaboh,4.1363,96.1285,26.07000000000005,89,96,1.63,ID,1722025077
470,el fasher,13.6279,25.3494,28.950000000000045,54,100,5.03,SD,1722025079
471,padalarang,-6.8378,107.4728,18.939999999999998,90,6,1.88,ID,1722025080
472,inhambane,-23.865,35.3833,20.33000000000004,78,0,4.33,MZ,1722025081
473,valley city,46.9233,-98.0032,33.29000000000002,55,0,6.17,US,1722025082
474,toba,34.4833,136.85,27.0,84,100,2.15,JP,1722025083
475,puerto aysen,-45.4,-72.7,4.930000000000007,99,100,3.39,CL,1722025084
476,kayangel,8.0823,134.7173,28.160000000000025,78,100,7.11,PW,1722025085
477,yambio,4.5721,28.3955,21.210000000000036,89,98,1.2,SS,1722025087
478,monaco,43.7314,7.419,27.82000000000005,61,0,2.06,MC,1722025088
479,san luis de la loma,17.2706,-100.8939,31.52000000000004,64,95,4.09,MX,1722025089
480,huatabampo,26.8333,-109.6333,34.25,48,50,5.15,MX,1722025090
481,nueva gerona,21.8833,-82.8,32.650000000000034,54,10,5.97,CU,1722025091
482,lascano,-33.6667,-54.2,15.050000000000011,66,0,3.85,UY,1722025092
483,vryburg,-26.9566,24.7284,9.28000000000003,18,0,2.65,ZA,1722025093
484,darhan,49.4867,105.9228,17.510000000000048,94,100,1.37,MN,1722025094
485,cabo san lucas,22.8909,-109.9124,35.900000000000034,46,0,5.66,MX,1722024861
486,crucecita,-28.95,-58.9833,26.03000000000003,48,0,3.67,AR,1722025097
487,spanish springs,39.6491,-119.7074,34.32000000000005,11,0,6.69,US,1722024864
488,son la,21.3167,103.9,21.680000000000007,90,100,1.24,VN,1722025099
489,chernyshevskiy,63.0128,112.4714,14.720000000000027,95,100,1.46,RU,1722025100
490,lazaro cardenas,17.9583,-102.2,31.060000000000002,61,76,6.14,MX,1722025101
491,xinqing,48.2333,129.5,18.390000000000043,99,100,4.91,CN,1722025102
492,takedamachi,32.9667,131.4,22.900000000000034,96,79,1.44,JP,1722025103
493,morondava,-20.2833,44.2833,21.210000000000036,85,0,5.78,MG,1722025105
494,palikir - national government center,6.9248,158.1611,28.410000000000025,79,100,2.57,FM,1722025106
495,shawano,44.7822,-88.609,26.99000000000001,44,0,3.09,US,1722024919
496,nampula,-15.1165,39.2666,18.970000000000027,77,0,2.57,MZ,1722025108
497,hastings,50.8552,0.5729,17.660000000000025,83,83,4.88,GB,1722025109
498,boguchany,58.3814,97.4531,16.05000000000001,91,11,1.56,RU,1722025110
499,richfield,44.8833,-93.283,30.760000000000048,70,75,8.75,US,1722025111
500,hilo,19.7297,-155.09,26.850000000000023,78,100,2.57,US,1722025113
501,bestensee,52.25,13.65,21.210000000000036,75,0,2.57,DE,1722025114
502,saint-philippe,-21.3585,55.7679,20.77000000000004,80,11,2.6,RE,1722025115
503,dubbo,-32.25,148.6167,10.07000000000005,100,75,3.09,AU,1722025116
504,novodvinsk,64.4165,40.8122,13.860000000000014,64,9,2.44,RU,1722025117
505,chyorny yar,48.0624,46.1091,21.02000000000004,39,3,3.9,RU,1722025118
506,san gabriel,34.0961,-118.1058,36.860000000000014,43,0,1.34,US,1722025119
507,kathmandu,27.7167,85.3167,24.120000000000005,94,75,1.03,NP,1722024901
508,ust'-barguzin,53.45,108.9833,13.800000000000011,94,42,0.92,RU,1722025122
509,hanover,52.3705,9.7332,21.060000000000002,90,20,0.51,DE,1722025123
510,porto novo,6.4965,2.6036,24.900000000000034,86,40,4.14,BJ,1722025125
511,keelung,25.1283,121.7419,27.83000000000004,89,100,1.76,TW,1722025126
512,campina verde,-19.5356,-49.4864,29.460000000000036,17,0,1.34,BR,1722025127
513,ariyalur,11.1333,79.0833,28.30000000000001,70,99,1.34,IN,1722025129
514,ndelele,4.0333,14.9333,23.30000000000001,78,100,1.14,CM,1722025130
515,santa cruz,-17.8,-63.1667,32.700000000000045,48,20,8.23,BO,1722024741
516,yung shue wan,22.2333,114.1167,29.860000000000014,88,100,8.08,HK,1722025132
517,sona,45.4388,10.8255,26.99000000000001,61,0,2.57,IT,1722025133
518,kati,12.7441,-8.0726,23.670000000000016,84,100,1.88,ML,1722025134
519,chebba,35.2372,11.115,27.0,66,0,5.54,TN,1722025137
520,daru,-9.0763,143.2092,24.340000000000032,88,100,6.71,PG,1722025138
521,suoyarvi,62.0833,32.35,17.629999999999995,80,48,1.88,RU,1722025139
522,mudukulattur,9.3417,78.5139,29.900000000000034,55,100,7.21,IN,1722025140
523,tatvan,38.5067,42.2817,20.390000000000043,46,0,3.85,TR,1722025141
524,gambela,8.25,34.5833,21.670000000000016,98,100,2.01,ET,1722024974
525,isfara,40.1265,70.6253,30.129999999999995,28,0,3.17,TJ,1722025144
526,qulsary,46.9531,54.0198,25.680000000000007,54,100,5.26,KZ,1722025145
527,ketchikan,55.3422,-131.6461,16.860000000000014,72,100,4.12,US,1722025146
528,banda aceh,5.5577,95.3222,27.350000000000023,75,100,5.43,ID,1722025147
529,nagqu,31.5,92.0,6.640000000000043,95,100,1.55,CN,1722025148
530,tadine,-21.55,167.8833,18.82000000000005,69,2,5.96,NC,1722025149
531,ryotsu-minato,38.0833,138.4333,23.910000000000025,91,100,0.91,JP,1722025150
532,las heras,-46.5419,-68.9359,8.129999999999995,49,15,15.98,AR,1722025151
533,ceylanpinar,36.8472,40.05,31.110000000000014,38,0,8.53,TR,1722025153
534,panaba,21.2833,-88.2667,32.09000000000003,64,99,3.03,MX,1722025154
535,svetlyy,54.675,20.1347,15.03000000000003,75,100,3.61,RU,1722025155
536,mahibadhoo,3.7833,72.9667,28.870000000000005,79,100,5.15,MV,1722025156
537,colon,9.3592,-79.9014,25.510000000000048,87,100,1.34,PA,1722025157
538,tabuk,17.4189,121.4443,23.930000000000007,93,100,1.21,PH,1722025158
539,whangarei,-35.7317,174.3239,6.6299999999999955,94,1,0.8,NZ,1722025159
540,nyaunglebin,17.95,96.7333,24.129999999999995,97,100,2.36,MM,1722025161
541,new gloucester,43.9628,-70.2825,28.52000000000004,48,20,4.63,US,1722025162
542,prineville,44.2999,-120.8345,26.730000000000018,25,0,2.57,US,1722025137
543,port lincoln,-34.7333,135.8667,10.800000000000011,60,95,5.91,AU,1722025164
544,corn island,12.1694,-83.0418,28.220000000000027,81,12,7.81,NI,1722025165
545,flying fish cove,-10.4217,105.6791,24.82000000000005,83,75,5.66,CX,1722025166
546,belmonte,-15.8631,-38.8828,24.120000000000005,77,46,3.23,BR,1722025167
547,grootfontein,-19.5667,18.1167,16.760000000000048,16,0,2.06,NA,1722025169
548,fuglafjordur,62.244,-6.814,11.260000000000048,90,100,6.43,FO,1722025170
549,ninotsminda,41.2646,43.5916,12.740000000000009,91,87,1.55,GE,1722025171
550,umm kaddadah,13.6017,26.6876,33.48000000000002,37,100,5.81,SD,1722025172
551,minas de marcona,-15.2119,-75.1103,14.57000000000005,65,4,7.65,PE,1722025173
552,pariaman,-0.619,100.12,23.03000000000003,87,69,2.11,ID,1722025174
553,santiago de cao,-7.9589,-79.2392,19.07000000000005,72,0,4.63,PE,1722025175
