City_ID,City,Lat,Lng,Max Temp,Humidity,Cloudiness,Wind Speed,Country,Date
0,tura,25.5198,90.2201,298.98,96,100,2.88,IN,1722022251
1,college,64.8569,-147.8028,293.33,80,100,2.57,US,1722021922
2,adamstown,-25.066,-130.1015,293.43,72,100,5.83,PN,1722021876
3,iqaluit,63.7506,-68.5145,280.0,70,75,12.86,CA,1722021894
4,grytviken,-54.2811,-36.5092,272.88,96,100,1.2,GS,1722021838
5,roma,43.2128,-75.4557,300.2,46,75,4.12,US,1722021829
6,alofi,-19.0595,-169.9187,296.09,88,75,4.12,NU,1722022259
7,petropavlovsk-kamchatsky,53.0452,158.6483,284.93,93,92,0.61,RU,1722021949
8,port-aux-francais,-49.35,70.2167,274.33,81,78,19.01,TF,1722021834
9,puerto ayora,-0.7393,-90.3518,298.13,91,41,3.58,EC,1722021929
10,avarua,-21.2078,-159.775,298.18,78,20,7.2,CK,1722021963
11,obo,5.3998,26.4869,293.7,93,78,1.75,CF,1722022265
12,chengde,40.9725,117.9361,294.89,97,34,0.75,CN,1722022266
13,puerto natales,-51.7236,-72.4875,275.4,87,75,3.6,CL,1722021634
14,bethel,41.3712,-73.414,302.04,48,0,5.66,US,1722021725
15,bucyrus,40.8084,-82.9755,300.51,47,0,4.06,US,1722022269
16,trincomalee,8.5711,81.2335,301.59,76,100,9.01,LK,1722022271
17,beledweyne,4.7358,45.2036,298.79,65,99,9.27,SO,1722022272
18,ust-nera,64.5667,143.2,286.2,52,15,1.48,RU,1722022207
19,junin de los andes,-39.9504,-71.0694,277.91,53,0,7.68,AR,1722022274
20,howard springs,-12.497,131.047,298.1,95,100,2.03,AU,1722022244
21,dakhla,23.6848,-15.958,294.16,94,18,8.23,EH,1722022218
22,port lincoln,-34.7333,135.8667,283.95,60,95,5.91,AU,1722022242
23,port mathurin,-19.6833,63.4167,295.91,74,0,8.26,MU,1722022213
24,chadron,42.8294,-102.9999,310.01,20,0,4.47,US,1722022280
25,shakawe,-18.3667,21.85,292.01,15,0,2.27,BW,1722022281
26,wailua homesteads,22.0669,-159.378,297.66,84,100,7.2,US,1722022211
27,biryusinsk,55.9634,97.8235,289.72,90,9,1.68,RU,1722022222
28,constantia,44.1833,28.65,294.65,68,0,3.57,RO,1722021912
29,callao,-12.0667,-77.15,290.31,77,100,2.57,PE,1722022066
30,thompson,55.7435,-97.8558,298.24,83,100,3.6,CA,1722022196
31,happy valley-goose bay,53.3168,-60.3315,290.32,51,20,2.06,CA,1722022223
32,praia,14.9215,-23.5087,300.45,74,20,3.09,CV,1722022289
33,fort bragg,35.139,-79.006,299.23,93,100,2.57,US,1722022002
34,mata-utu,-13.2816,-176.1745,300.96,76,5,6.07,WF,1722022291
35,pangody,65.85,74.4859,281.54,94,55,2.02,RU,1722022292
36,bilibino,68.0546,166.4372,276.04,74,100,2.57,RU,1722022196
37,kirakira,-10.4544,161.9205,297.72,87,100,3.7,SB,1722022226
38,san patricio,28.017,-97.5169,302.08,53,63,3.85,US,1722022245
39,blackmans bay,-43.0167,147.3167,281.89,79,100,0.89,AU,1722022190
40,dholka,22.7167,72.4667,300.36,81,100,5.08,IN,1722022298
41,port augusta,-32.5,137.7667,283.44,73,100,0.56,AU,1722022216
42,rohru,31.2167,77.75,293.84,94,99,0.55,IN,1722022300
43,kaa-khem,51.6833,94.7333,295.86,43,100,1.96,RU,1722022058
44,along,28.1667,94.7667,295.84,93,100,0.42,IN,1722022303
45,san giorgio delle pertiche,45.541,11.894,300.27,76,1,1.35,IT,1722022305
46,chany,55.3121,76.7647,292.87,94,100,2.62,RU,1722022306
47,bardai,11.65,7.2333,296.3,86,98,3.17,NG,1722022205
48,hamilton,39.1834,-84.5333,303.15,44,0,3.09,US,1722021900
49,waitangi,-43.9535,-176.5597,280.83,83,2,2.96,NZ,1722022189
50,khanty-mansiysk,61.0042,69.0019,289.21,77,40,4.0,RU,1722022210
51,mount pearl,47.5166,-52.7813,290.55,95,100,3.09,CA,1722022312
52,elko,41.0002,-115.5012,302.39,24,0,4.92,US,1722022314
53,papatowai,-46.5619,169.4708,284.53,82,100,1.8,NZ,1722021869
54,williamsburg,37.2707,-76.7075,301.02,71,75,6.17,US,1722022197
55,margaret river,-33.95,115.0667,286.97,65,48,3.14,AU,1722021866
56,mishelevka,52.8575,103.1719,290.71,94,75,0.68,RU,1722022319
57,lindi,-10.0,39.7167,293.11,80,5,1.74,TZ,1722022320
58,isafjordur,66.0755,-23.124,280.88,91,99,2.83,IS,1722021887
59,edinburgh of the seven seas,-37.0676,-12.3116,283.91,59,36,3.6,SH,1722021836
60,dokuchayevs'k,47.7477,37.6738,298.51,26,99,6.2,UA,1722022323
61,pacanga,-7.1667,-79.5,295.54,57,13,5.86,PE,1722022324
62,iskateley,67.6803,53.1512,280.44,82,100,3.69,RU,1722022326
63,kingston,17.997,-76.7936,307.68,55,20,7.2,JM,1722022046
64,mariental,-24.6333,17.9667,285.19,12,18,1.32,NA,1722022328
65,stanley,54.868,-1.6985,289.16,67,0,4.12,GB,1722022193
66,colonia,50.9333,6.95,295.83,71,75,2.57,DE,1722022330
67,jamestown,42.097,-79.2353,298.4,43,0,2.06,US,1722021688
68,vilyuchinsk,52.9306,158.4028,287.94,88,65,0.82,RU,1722022334
69,uturoa,-16.7333,-151.4333,298.46,66,27,7.1,PF,1722022335
70,qamdo,31.1667,97.2333,281.72,91,100,1.69,CN,1722022336
71,chaman,30.9236,66.4512,305.19,13,6,3.93,PK,1722022337
72,ushuaia,-54.8,-68.3,277.94,87,75,9.77,AR,1722021850
73,hawaiian paradise park,19.5933,-154.9731,298.56,82,100,3.6,US,1722022339
74,aipe,3.2222,-75.2367,310.18,26,97,5.04,CO,1722022342
75,georgetown,5.4112,100.3354,303.12,70,20,1.03,MY,1722021842
76,pingliang,35.5392,106.6861,293.85,70,100,1.28,CN,1722022344
77,nouadhibou,20.931,-17.0347,297.14,78,40,6.17,MR,1722022345
78,yellowknife,62.456,-114.3525,298.38,46,75,7.72,CA,1722021893
79,qaqortoq,60.7167,-46.0333,278.51,74,100,4.72,GL,1722021877
80,san antonio,29.4241,-98.4936,305.46,62,40,3.09,US,1722022090
81,invercargill,-46.4,168.35,283.16,96,100,0.74,NZ,1722021837
82,revda,56.801,59.9303,283.84,98,100,5.77,RU,1722022351
83,punta arenas,-53.15,-70.9167,276.21,75,75,11.32,CL,1722021976
84,entebbe,0.0644,32.4469,295.33,78,0,1.54,UG,1722022353
85,cidreira,-30.1811,-50.2056,290.21,82,84,2.85,BR,1722022356
86,penaranda de bracamonte,40.9011,-5.2003,304.45,21,58,3.01,ES,1722022357
87,palikir - national government center,6.9248,158.1611,300.62,83,100,3.09,FM,1722022358
88,bad lobenstein,50.4493,11.6381,292.25,1,89,1.75,DE,1722022359
89,vorgashor,67.5833,63.95,281.65,90,100,1.8,RU,1722022360
90,mejit,10.2753,170.8646,301.19,82,100,8.35,MH,1722021844
91,nemuro,43.3236,145.575,286.26,91,65,2.92,JP,1722021957
92,flin flon,54.7682,-101.865,296.06,40,75,10.29,CA,1722022364
93,ilulissat,69.2167,-51.1,277.16,93,75,2.57,GL,1722021968
94,cabugao,17.7931,120.4578,301.98,89,100,4.63,PH,1722022366
95,port alfred,-33.5906,26.891,288.5,75,0,3.3,ZA,1722021921
96,waingapu,-9.6567,120.2641,296.27,81,0,2.21,ID,1722022368
97,eirunepe,-6.6603,-69.8736,309.62,30,100,0.65,BR,1722022369
98,talnakh,69.4865,88.3972,288.76,80,3,4.02,RU,1722021899
99,gonzaga,44.9498,10.8209,302.07,59,0,4.01,IT,1722022371
100,khandyga,62.6667,135.6,287.3,94,100,1.41,RU,1722021944
101,bako,5.7833,36.5667,290.9,96,100,1.12,ET,1722022374
102,tolanaro,-25.0319,46.9987,293.19,83,20,1.03,MG,1722021863
103,prades,42.5833,2.1667,291.0,86,100,1.95,FR,1722022376
104,simav,39.0882,28.9777,290.23,76,0,3.15,TR,1722022377
105,lebu,-37.6167,-73.65,282.9,59,5,5.67,CL,1722021992
106,ryotsu-minato,38.0833,138.4333,297.06,91,100,0.91,JP,1722022379
107,cabo san lucas,22.8909,-109.9124,308.49,46,0,4.12,MX,1722022151
108,axim,4.8699,-2.2405,297.41,90,55,4.07,GH,1722022382
109,ciudad bolivar,8.1222,-63.5497,305.0,59,99,3.77,VE,1722022383
110,chui,-33.6971,-53.4616,285.52,77,0,3.02,UY,1722022384
111,kencong,-8.2833,113.3667,295.15,92,10,0.7,ID,1722022385
112,kerikeri,-35.2268,173.9474,279.98,92,17,1.91,NZ,1722022386
113,nova vicosa,-17.8919,-39.3719,297.68,69,16,4.02,BR,1722022387
114,ntungamo,-0.8833,29.65,295.26,62,94,1.02,UG,1722022388
115,saint-paul,-21.0096,55.2707,294.21,91,2,0.98,RE,1722022390
116,west island,-12.1568,96.8225,299.14,83,100,3.09,CC,1722021841
117,bredasdorp,-34.5322,20.0403,282.84,86,0,2.93,ZA,1722021959
118,taltal,-25.4,-70.4833,290.88,67,32,3.14,CL,1722022393
119,shira,54.4911,89.9531,290.91,90,61,1.59,RU,1722022394
120,albany,42.6001,-73.9662,300.9,47,1,1.34,US,1722021662
121,longyearbyen,78.2186,15.6401,283.06,87,75,2.06,SJ,1722021832
122,tuy hoa,13.0833,109.3,301.58,64,100,6.77,VN,1722022398
123,cadillac,44.2519,-85.4012,298.59,44,0,1.54,US,1722022399
124,shimoda,34.6667,138.95,300.43,96,99,4.15,JP,1722022400
125,tvoroyri,61.5556,-6.8111,284.41,93,99,8.04,FO,1722022401
126,kapuskasing,49.4169,-82.4331,298.2,50,75,5.14,CA,1722022402
127,riohacha,11.5444,-72.9072,306.7,50,100,5.84,CO,1722022403
128,hasaki,35.7333,140.8333,299.37,86,94,2.3,JP,1722022404
129,kotel,42.8833,26.45,294.9,64,0,2.17,BG,1722022406
130,ribeira grande,38.5167,-28.7,298.37,88,75,6.17,PT,1722021920
131,new norfolk,-42.7826,147.0587,282.55,95,77,1.76,AU,1722022408
132,derbent,42.0678,48.2899,296.89,78,39,2.46,RU,1722022409
133,sheridan,44.8333,-106.9173,300.94,25,0,0.45,US,1722022358
134,hilo,19.7297,-155.09,298.68,80,100,3.6,US,1722022398
135,anadyr,64.75,177.4833,281.43,75,75,5.0,RU,1722022414
136,juan griego,11.0817,-63.9655,305.22,66,0,8.23,VE,1722022416
137,kavarna,43.4333,28.3333,296.75,86,37,4.02,BG,1722022417
138,malango,-2.9627,119.9001,291.85,99,51,0.78,ID,1722022418
139,east london,-33.0153,27.9116,288.88,76,29,3.27,ZA,1722022419
140,luwuk,-0.9516,122.7875,294.91,93,39,1.71,ID,1722022420
141,charcas,23.1333,-101.1167,288.52,88,100,1.76,MX,1722022421
142,imbituba,-28.24,-48.6703,292.51,78,79,1.59,BR,1722021901
143,tiksi,71.6872,128.8694,278.62,74,35,1.48,RU,1722022424
144,atafu village,-8.5421,-172.5159,301.01,68,100,0.73,TK,1722021897
145,utrik,11.2278,169.8474,300.99,81,100,8.46,MH,1722022426
146,sinabang,2.4803,96.3801,300.19,83,100,2.3,ID,1722022233
147,porto novo,6.4965,2.6036,298.05,84,51,4.28,BJ,1722021860
148,levuka,50.1834,-105.4011,298.0,29,20,9.26,CA,1722022429
149,windsor,42.3001,-83.0165,300.93,49,0,4.12,CA,1722022422
150,zlatni pyasatsi,43.285,28.0418,296.09,86,10,3.61,BG,1722022432
151,tazovsky,67.4667,78.7,283.12,95,90,2.89,RU,1722021961
152,cortez,37.3489,-108.5859,303.72,32,10,8.22,US,1722022434
153,laguna,38.421,-121.4238,310.91,22,0,4.63,US,1722022435
154,aspen,39.1911,-106.8175,297.51,43,20,1.54,US,1722022436
155,kilindoni,-7.9139,39.6668,298.13,72,4,6.93,TZ,1722022437
156,salacgriva,57.7536,24.3581,290.57,84,7,1.25,LV,1722022438
157,kairouan,35.6781,10.0963,305.16,43,0,3.09,TN,1722022439
158,magomeni,-6.8,39.25,296.36,83,20,0.0,TZ,1722022441
159,muli,2.9167,73.5667,302.3,75,100,4.64,MV,1722022442
160,rudnichnyy,59.617,52.4703,283.35,77,68,1.93,RU,1722022443
161,darovskoy,58.77,47.9564,285.0,75,82,2.5,RU,1722022444
162,ilhabela,-23.7781,-45.3581,294.55,68,100,0.78,BR,1722022386
163,mount gambier,-37.8333,140.7667,280.35,96,100,1.52,AU,1722022446
164,weno,7.4515,151.8468,299.12,94,100,6.17,FM,1722022009
165,pucon,-39.2822,-71.9543,279.85,64,3,0.82,CL,1722022337
166,chonchi,-42.6128,-73.8092,280.99,81,31,5.04,CL,1722022236
167,palmer,42.1584,-72.3287,301.9,40,40,7.2,US,1722022205
168,saipan,15.1355,145.701,301.54,78,75,2.06,MP,1722022201
169,golere,16.2557,-14.1017,308.63,41,63,4.91,SN,1722022453
170,hermanus,-34.4187,19.2345,284.71,82,0,5.81,ZA,1722022026
171,leava,-14.3,-178.1667,298.95,78,100,7.68,WF,1722022202
172,berowra heights,-33.6096,151.1373,282.39,95,100,1.44,AU,1722022456
173,muroto-misakicho,33.2833,134.15,300.73,85,100,2.45,JP,1722022459
174,guiuan,11.0333,125.7247,302.04,71,100,1.65,PH,1722022460
175,vila velha,-20.3297,-40.2925,299.12,75,20,7.72,BR,1722022461
176,san antonio de pale,-1.4014,5.6325,296.6,85,87,5.43,GQ,1722022044
177,mermoz boabab,14.7065,-17.4758,301.46,83,40,2.06,SN,1722022252
178,mhamid,29.82,-5.72,311.88,12,92,6.73,MA,1722022464
179,mont-dore,-22.2833,166.5833,293.15,99,97,2.96,NC,1722022466
180,vernal,40.4555,-109.5287,302.77,28,0,0.0,US,1722022467
181,sur,22.5667,59.5289,306.72,48,100,7.04,OM,1722022468
182,palembang,-2.9167,104.7458,296.07,97,19,1.44,ID,1722022469
183,pindushi,62.9152,34.58,290.01,71,5,0.92,RU,1722022470
184,peniche,39.3558,-9.3811,295.53,93,29,6.85,PT,1722022256
185,den burg,53.0542,4.7972,290.9,82,40,2.57,NL,1722022473
186,udachny,66.4167,112.4,284.4,60,73,1.63,RU,1722021977
187,port elizabeth,-33.918,25.5701,286.31,87,0,1.54,ZA,1722022192
188,as sulayyil,20.4607,45.5779,309.29,13,98,2.72,SA,1722022476
189,leninskiy,54.2781,37.4558,288.27,65,4,0.5,RU,1722022477
190,bamboo flat,11.7,92.7167,302.2,84,75,5.66,IN,1722022478
191,brevard,28.292,-80.7492,308.18,66,0,4.63,US,1722022479
192,ushibukamachi,32.1906,130.0228,299.62,87,11,3.53,JP,1722022481
193,tukrah,32.5341,20.5791,300.66,73,0,4.24,LY,1722022254
194,betio village,1.358,172.9211,301.17,70,97,6.3,KI,1722022483
195,la tuque,47.4334,-72.7824,298.29,33,0,3.6,CA,1722022484
196,farafangana,-22.8167,47.8333,293.8,86,50,2.76,MG,1722022485
197,novodvinsk,64.4165,40.8122,288.01,64,9,2.44,RU,1722022208
198,carutapera,-1.195,-46.02,300.81,71,82,5.08,BR,1722022487
199,suntar,62.1444,117.6319,287.86,91,100,1.74,RU,1722022489
200,codrington,-38.2667,141.9667,281.38,95,100,3.64,AU,1722022200
201,emerald,-23.5333,148.1667,286.67,85,100,1.83,AU,1722022244
202,qarqin,37.4185,66.0436,307.31,24,0,4.65,AF,1722022492
203,bubaque,11.2833,-15.8333,300.08,82,99,7.87,GW,1722022493
204,port lavaca,28.615,-96.6261,301.65,69,97,3.12,US,1722022217
205,kyren,51.6828,102.1408,287.85,90,65,0.89,RU,1722022495
206,ancud,-41.8697,-73.8203,281.91,85,64,9.53,CL,1722022497
207,frederico westphalen,-27.3592,-53.3944,297.69,67,55,1.2,BR,1722021923
208,rongelap,11.1635,166.8941,301.22,78,61,8.54,MH,1722022256
209,kalasin,16.5,103.5,300.82,58,100,5.88,TH,1722022500
210,pleiku,13.9833,108.0,293.96,99,100,4.9,VN,1722022501
211,alta,69.9689,23.2717,295.74,60,0,4.63,NO,1722022502
212,saint john,45.2727,-66.0677,298.72,61,75,5.14,CA,1722022394
213,niquero,20.0431,-77.5828,304.73,63,53,2.91,CU,1722022505
214,dubbo,-32.25,148.6167,282.22,100,75,2.06,AU,1722022224
215,malanje,-9.5402,16.341,294.04,15,0,1.4,AO,1722022507
216,bikenibeu village,1.3673,173.1241,301.13,78,40,4.12,KI,1722022229
217,sola,-13.8833,167.55,298.33,63,49,10.62,VU,1722022192
218,gaozhou,21.9392,110.8461,300.73,92,100,1.11,CN,1722022510
219,gadzhiyevo,69.2551,33.3362,290.62,70,8,1.54,RU,1722022206
220,manavalakurichi,8.1333,77.3,300.29,93,91,5.69,IN,1722022513
221,fort mcmurray,56.7268,-111.381,290.92,67,75,2.57,CA,1722022213
222,kone,-21.0595,164.8658,289.72,80,32,2.01,NC,1722022245
223,corum,40.5,34.75,289.47,82,5,1.87,TR,1722022516
224,ingersoll,43.0334,-80.883,300.14,41,0,2.91,CA,1722022517
225,tromso,69.6496,18.957,291.16,72,0,0.0,NO,1722022519
226,badger,64.8,-147.5333,293.29,78,40,2.57,US,1722022192
227,olonkinbyen,70.9221,-8.7187,278.2,98,100,4.55,SJ,1722022195
228,zhanaozen,43.3,52.8,303.0,22,99,2.62,KZ,1722022522
229,capinota,-17.7167,-66.2333,301.82,10,0,2.25,BO,1722022523
230,puerto deseado,-47.7503,-65.8938,283.01,45,100,16.33,AR,1722022206
231,kununurra,-15.7667,128.7333,297.14,73,20,0.0,AU,1722022525
232,yantzaza,-3.8278,-78.7594,298.32,54,96,0.4,EC,1722022527
233,sarangani,5.4033,125.4636,300.46,78,100,2.5,PH,1722022252
234,nassau village-ratliff,30.5111,-81.8093,306.07,70,99,1.05,US,1722022529
235,luganville,-15.5333,167.1667,296.25,71,100,5.12,VU,1722022213
236,port macquarie,-31.4333,152.9167,282.08,99,37,0.89,AU,1722022204
237,alice springs,-23.7,133.8833,280.9,100,38,0.0,AU,1722022532
238,manadhoo,5.7667,73.3833,301.72,83,100,6.2,MV,1722022534
239,igarka,67.4667,86.5833,287.37,95,100,3.36,RU,1722022212
240,karratha,-20.7377,116.8463,289.11,24,0,6.2,AU,1722022203
241,nar'yan-mar,67.6713,53.087,280.54,82,100,3.73,RU,1722022209
242,opuwo,-18.0607,13.84,290.45,21,0,2.45,NA,1722022538
243,suva,-18.1416,178.4415,292.86,88,40,3.6,FJ,1722022539
244,sayat,38.7839,63.8803,307.08,22,0,7.95,TM,1722022540
245,arawa,-6.2132,155.5367,297.7,90,100,1.19,PG,1722022542
246,sitka,57.0531,-135.33,288.83,73,91,2.27,US,1722022214
247,uniao da vitoria,-26.23,-51.0864,294.2,70,55,0.97,BR,1722022544
248,sarayonu,38.262,32.4046,294.94,58,0,4.78,TR,1722022545
249,crucecita,-28.95,-58.9833,299.18,48,0,3.67,AR,1722022234
250,sisimiut,66.9395,-53.6735,279.0,73,100,9.03,GL,1722022249
251,padang,-0.9492,100.3543,297.18,89,45,1.77,ID,1722022242
252,sibu,2.3,111.8167,298.32,94,40,0.51,MY,1722022550
253,yangshuo,24.7808,110.4897,299.45,94,100,0.54,CN,1722022551
254,ulundi,-28.3352,31.4162,287.26,44,0,1.43,ZA,1722022552
255,antonio enes,-16.2325,39.9086,294.04,69,0,3.0,MZ,1722022300
256,ebon,4.582,168.6964,301.81,76,100,4.65,MH,1722022554
257,touros,-5.1989,-35.4608,298.32,74,5,6.46,BR,1722022202
258,dudinka,69.4058,86.1778,287.75,95,0,3.91,RU,1722022217
259,zaozersk,69.4005,32.4476,289.39,77,10,0.96,RU,1722022558
260,ulladulla,-35.35,150.4667,280.85,66,0,2.53,AU,1722022194
261,bastia umbra,43.0679,12.5456,304.21,47,18,4.12,IT,1722022560
262,sidhi,24.4167,81.8833,303.16,77,93,1.33,IN,1722022561
263,salym,60.0625,71.4789,287.45,95,100,5.12,RU,1722022562
264,khovd,48.0056,91.6419,293.53,48,44,1.91,MN,1722022563
265,neryungri,56.6709,124.6491,288.51,81,0,1.26,RU,1722022564
266,zhangjiakou,40.81,114.8794,294.87,91,60,2.21,CN,1722022220
267,vilyuysk,63.7553,121.6247,284.92,81,12,2.1,RU,1722022217
268,farasan,16.7022,42.1183,304.13,78,100,1.23,SA,1722022568
269,kodiak,57.79,-152.4072,285.88,100,100,1.54,US,1722022188
270,macusani,-14.0833,-70.4333,285.24,24,0,3.8,PE,1722022570
271,horta,38.5333,-28.6333,297.95,93,75,6.17,PT,1722022571
272,aasiaat,68.7098,-52.8699,275.42,95,100,2.27,GL,1722022195
273,maintirano,-18.0667,44.0167,295.76,73,0,5.35,MG,1722022574
274,barranca,-10.75,-77.7667,291.77,72,19,5.04,PE,1722022575
275,buala,-8.145,159.5921,299.18,86,100,3.45,SB,1722022245
276,mount isa,-20.7333,139.5,292.02,82,100,0.0,AU,1722022578
277,tandag,9.0783,126.1986,298.04,87,100,1.76,PH,1722022579
278,al jawf,29.5,38.75,306.03,17,0,4.17,SA,1722022049
279,fish town,5.1964,-7.8756,295.29,97,88,1.83,LR,1722022583
280,mao,39.8885,4.2658,300.46,65,0,2.57,ES,1722022585
281,fort frances,48.5999,-93.4003,303.8,68,0,0.45,CA,1722022588
282,kailua-kona,19.6406,-155.9956,302.13,65,20,7.2,US,1722022224
283,alesund,62.4723,6.1549,289.44,89,40,3.09,NO,1722022311
284,boende,-0.2167,20.8667,298.51,64,4,1.58,CD,1722022591
285,afaahiti,-17.75,-149.2833,298.08,68,100,5.79,PF,1722021795
286,akjoujt,19.6969,-14.4164,306.08,28,24,7.89,MR,1722022593
287,tondano,1.3038,124.9112,292.2,98,91,0.45,ID,1722022594
288,klyuchi,52.2667,79.1667,297.5,59,100,3.93,RU,1722022051
289,moree,-29.4667,149.85,286.9,93,100,4.45,AU,1722022598
290,sidney,-33.8679,151.2073,282.24,88,100,4.12,AU,1722022359
291,baardheere,2.3446,42.2764,299.05,62,57,8.28,SO,1722022600
292,tuensang,26.2833,94.8333,293.91,97,100,2.14,IN,1722022601
293,fuling,29.7022,107.3919,299.66,91,100,1.18,CN,1722022602
294,trairi,-3.2778,-39.2689,299.24,73,63,6.09,BR,1722022401
295,urangan,-25.3,152.9,291.87,74,83,1.04,AU,1722022228
296,lorengau,-2.0226,147.2712,300.35,79,100,3.14,PG,1722022606
297,queenstown,-31.8976,26.8753,281.5,29,0,1.19,ZA,1722022023
298,haiku-pauwela,20.9219,-156.3051,299.4,69,20,7.2,US,1722022226
299,st. john's,47.5649,-52.7093,291.92,95,100,3.09,CA,1722022212
300,mpanda,-6.3655,31.0409,292.83,29,1,0.62,TZ,1722022610
301,bucak,37.4592,30.595,296.44,51,1,2.8,TR,1722022612
302,la palma,33.8464,-118.0467,308.88,55,20,4.12,US,1722022613
303,la ronge,55.1001,-105.2842,289.27,72,100,5.14,CA,1722022614
304,port-gentil,-0.7193,8.7815,298.13,78,100,5.66,GA,1722022615
305,karakoyunlu,39.8704,43.6301,293.04,79,6,0.42,TR,1722022616
306,somerset,40.5668,-74.5496,303.28,46,75,3.09,US,1722022617
307,kozan,37.4552,35.8157,297.21,90,52,1.29,TR,1722022619
308,port alberni,49.2413,-124.8028,298.03,53,24,1.25,CA,1722022621
309,igabi,10.7889,7.7749,294.63,97,100,2.01,NG,1722022622
310,pudasjarvi,65.3833,26.9167,290.67,84,99,0.57,FI,1722022623
311,fallsburg,41.732,-74.6013,300.4,44,2,4.74,US,1722022325
312,nizao,18.25,-70.2,307.24,63,100,5.44,DO,1722022625
313,el granada,37.5027,-122.4694,298.86,65,20,11.32,US,1722022626
314,puerto armuelles,8.2833,-82.8667,304.14,82,100,3.58,PA,1722022244
315,praia da vitoria,38.7333,-27.0667,303.29,54,40,5.0,PT,1722022246
316,settat,33.0007,-7.6204,295.05,56,0,4.56,MA,1722022630
317,ofunato,39.0717,141.7167,294.54,98,100,0.88,JP,1722022237
318,la mira,18.035,-102.3266,304.82,58,89,5.56,MX,1722022632
319,ceylanpinar,36.8472,40.05,304.26,38,0,8.53,TR,1722022633
320,indre arna,60.4247,5.4764,288.52,93,29,0.42,NO,1722022634
321,la'ie,21.6477,-157.9253,300.62,73,100,2.68,US,1722022244
322,yamada,39.4667,141.95,293.32,99,100,1.41,JP,1722022637
323,kavaratti,10.5669,72.642,301.36,87,99,9.44,IN,1722022638
324,kyzyl,51.7,94.45,294.68,43,66,1.92,RU,1722022640
325,mayahi,13.9553,7.6712,303.92,54,65,6.2,NE,1722022641
326,lompoc,34.6391,-120.4579,305.23,64,0,5.14,US,1722022210
327,gomez farias,23.05,-99.15,299.77,76,92,1.67,MX,1722022643
328,pathein,16.7833,94.7333,299.04,91,100,5.56,MM,1722022245
329,riverton,40.5219,-111.9391,305.46,35,0,4.12,US,1722022647
330,coquimbo,-29.9533,-71.3436,291.47,51,0,4.63,CL,1722022648
331,yeppoon,-23.1333,150.7333,290.03,86,100,1.98,AU,1722022649
332,pisco,-13.7,-76.2167,290.94,77,7,5.14,PE,1722022441
333,pizarro,4.9533,-77.366,300.75,79,97,3.38,CO,1722022651
334,salta,-24.7859,-65.4117,299.48,35,0,3.6,AR,1722022502
335,phuthaditjhaba,-28.5242,28.8158,280.22,24,0,2.12,ZA,1722022654
336,kayangel,8.0823,134.7173,301.16,79,100,7.17,PW,1722022190
337,lerwick,60.1545,-1.1494,287.15,85,50,5.96,GB,1722022189
338,key west,24.5557,-81.7826,305.37,66,0,3.6,US,1722022200
339,selfoss,63.9331,-20.9971,287.06,76,21,4.22,IS,1722022658
340,kuching,1.55,110.3333,300.27,98,20,1.54,MY,1722022659
341,flying fish cove,-10.4217,105.6791,297.97,88,100,6.17,CX,1722022238
342,fada,7.25,4.0667,299.52,83,75,2.57,NG,1722022661
343,kudahuvadhoo,2.6708,72.8944,302.19,75,100,4.47,MV,1722022663
344,sidi bennour,32.6524,-8.4277,295.84,69,1,5.19,MA,1722022664
345,tobruk,32.0836,23.9764,300.05,83,0,6.03,LY,1722022665
346,fangshan,39.6983,115.9925,297.88,92,13,0.73,CN,1722022666
347,baruun-urt,46.6806,113.2792,289.02,96,23,3.92,MN,1722022667
348,baise city,23.8997,106.6133,302.23,99,100,0.92,CN,1722022668
349,napier,-39.4833,176.9167,280.05,80,12,2.43,NZ,1722022669
350,zemio,5.0314,25.1361,294.7,94,99,1.1,CF,1722022671
351,tralee,52.2704,-9.7026,286.78,80,100,2.85,IE,1722022218
352,itaituba,-4.2761,-55.9836,304.24,58,40,4.12,BR,1722022233
353,an nuhud,12.7,28.4333,304.73,46,100,6.72,SD,1722022674
354,belmonte,-15.8631,-38.8828,297.27,77,46,3.23,BR,1722022675
355,ain sefra,32.75,-0.5833,302.5,20,93,1.1,DZ,1722022676
356,buinsk,54.95,48.2833,287.08,61,100,3.37,RU,1722022677
357,lihue,21.9789,-159.3672,298.0,83,100,7.2,US,1722022216
358,ust-tsilma,65.441,52.1498,282.55,77,3,2.32,RU,1722022681
359,zambezi,-13.5432,23.1047,289.8,19,0,1.62,ZM,1722022682
360,igrim,63.1906,64.4162,285.2,67,100,3.05,RU,1722022683
361,bereznik,62.8551,42.7072,288.02,59,100,1.9,RU,1722022684
362,north bend,43.4065,-124.2243,297.73,72,0,10.8,US,1722022685
363,huilong,31.8111,121.655,301.06,87,100,12.2,CN,1722022686
364,nova sintra,14.8667,-24.7167,299.13,79,24,0.81,CV,1722022204
365,richards bay,-28.783,32.0377,290.27,89,0,1.62,ZA,1722022241
366,contamana,-7.3333,-75.0167,310.46,27,68,1.38,PE,1722022692
367,yeniseysk,58.4497,92.1703,291.12,81,10,1.77,RU,1722022236
368,byron bay,-28.65,153.6167,284.66,89,2,2.66,AU,1722022694
369,uglegorsk,49.0833,142.0333,286.83,91,4,2.68,RU,1722022695
370,shorewood,41.52,-88.2017,301.86,45,0,3.09,US,1722022697
371,lao cai,22.4833,103.95,300.41,81,100,1.34,VN,1722022698
372,mwinilunga,-11.7358,24.4293,288.58,23,0,1.09,ZM,1722022699
373,xapuri,-10.6517,-68.5044,310.8,20,3,1.57,BR,1722022700
374,wainwright,52.839,-110.8572,292.39,46,100,12.39,CA,1722022701
375,soio,-6.1349,12.3689,293.99,80,1,3.05,AO,1722022702
376,westport,41.1415,-73.3579,302.59,46,20,3.6,US,1722022008
377,lautoka,-17.6167,177.4667,292.07,88,40,2.57,FJ,1722022705
378,lianhe,47.1333,129.2667,293.37,99,100,2.12,CN,1722022706
379,auch,43.65,0.5833,299.45,89,0,1.79,FR,1722022707
380,bois-le-roi,48.4735,2.7046,293.9,94,100,1.03,FR,1722022708
381,byaroza,52.5314,24.9786,290.11,89,83,2.34,BY,1722022709
382,kataba,8.4604,-0.7732,300.09,76,90,2.35,GH,1722022710
383,antigonish,45.6169,-61.9986,297.12,78,7,2.24,CA,1722022711
384,broome,42.2506,-75.833,299.2,48,40,3.6,US,1722022713
385,muret,43.3333,1.25,301.84,79,53,1.42,FR,1722022714
386,jilin,43.0,126.0,295.07,98,100,2.63,CN,1722022715
387,la passe,45.5549,-0.8967,298.28,91,100,3.52,FR,1722022234
388,al hilaliyya,14.9398,33.234,300.2,61,100,1.46,SD,1722022717
389,hamar,60.7945,11.068,286.98,99,100,1.82,NO,1722022718
390,vadso,70.0744,29.7487,298.64,82,0,4.63,NO,1722022719
391,nyuzen,36.9333,137.5,299.21,88,100,1.22,JP,1722022720
392,al ghayzah,16.2079,52.176,298.74,90,100,7.45,YE,1722022722
393,bapatla,15.9,80.4667,302.21,71,100,5.02,IN,1722022723
394,plainfield,40.6168,-74.4173,303.23,45,99,0.89,US,1722022724
395,tsiombe,-25.3,45.4833,290.56,71,0,1.82,MG,1722022212
396,sao gabriel da cachoeira,-0.1303,-67.0892,302.04,74,40,1.54,BR,1722022191
397,port hedland,-20.3167,118.5667,284.18,30,0,3.6,AU,1722022727
398,aswan,24.0934,32.907,308.87,20,100,7.01,EG,1722022728
399,okhotsk,59.3833,143.3,286.4,96,100,0.46,RU,1722022246
400,port blair,11.6667,92.75,302.17,84,75,5.66,IN,1722022208
401,shingu,33.7333,135.9833,298.75,93,100,2.4,JP,1722022230
402,veseloyarsk,51.2836,81.1056,294.59,72,31,2.65,RU,1722022733
403,masterton,-40.9597,175.6575,284.2,85,100,2.01,NZ,1722022734
404,ambala,30.3783,76.7808,302.85,73,38,4.39,IN,1722022735
405,rostovka,55.3842,71.8891,290.28,97,96,3.54,RU,1722022736
406,rio grande,-32.035,-52.0986,292.21,77,0,3.0,BR,1722022737
407,diego de almagro,-26.3667,-70.05,298.49,9,0,2.98,CL,1722022739
408,crane,31.3974,-102.3501,307.1,23,0,4.92,US,1722022240
409,geraldton,-28.7667,114.6,282.38,100,0,4.63,AU,1722022741
410,prainha,-1.8,-53.48,306.13,43,100,2.53,BR,1722022742
411,ta`u,-14.2336,-169.5144,300.25,79,27,6.77,AS,1722022252
412,santa marta,11.2408,-74.199,306.18,62,40,2.06,CO,1722022744
413,longboat key,27.4125,-82.659,307.08,60,0,5.14,US,1722022745
414,dolinsk,47.35,142.8,287.2,91,0,2.04,RU,1722022747
415,yorkton,51.2167,-102.4677,296.06,43,0,8.75,CA,1722022748
416,talcahuano,-36.7167,-73.1167,284.97,58,20,5.14,CL,1722022589
417,jeremoabo,-10.075,-38.4808,299.49,44,34,6.59,BR,1722022461
418,kristiansund,63.1115,7.732,287.18,96,75,8.75,NO,1722022219
419,alamogordo,32.8995,-105.9603,307.16,28,0,2.57,US,1722022753
420,egilsstadir,65.2653,-14.3948,283.1,93,100,6.17,IS,1722022250
421,diego martin,10.7005,-61.5342,303.23,68,35,5.38,TT,1722022756
422,naze,28.3667,129.4833,300.66,86,53,5.65,JP,1722022238
423,saint-philippe,-21.3585,55.7679,293.92,80,11,2.6,RE,1722022228
424,castillos,-34.1667,-53.8333,284.98,74,0,2.24,UY,1722022759
425,enewetak,11.3474,162.3373,301.8,79,100,9.36,MH,1722022195
426,alotau,-10.3069,150.4462,294.99,90,100,1.77,PG,1722022241
427,antalaha,-14.9003,50.2788,293.2,91,18,2.56,MG,1722022215
428,punta del este,-34.9667,-54.95,290.21,89,0,3.6,UY,1722022763
429,wau,7.7029,27.9953,296.53,89,61,1.79,SS,1722022765
430,vila franca do campo,37.7167,-25.4333,298.38,80,5,4.59,PT,1722022241
431,vernon,50.2581,-119.2691,297.0,39,0,1.03,CA,1722022082
432,cockburn town,21.4612,-71.1419,301.9,85,100,7.35,TC,1722022208
433,santa terezinha,-29.9002,-50.0904,290.13,86,100,3.02,BR,1722022769
434,nuuk,64.1835,-51.7216,279.49,81,75,12.86,GL,1722021943
435,princeville,45.7668,-61.2985,297.37,78,20,6.69,CA,1722022771
436,whitehorse,60.7161,-135.0538,290.98,67,20,6.71,CA,1722022188
437,marquette,46.5333,-87.6335,300.39,41,0,3.13,US,1722022775
438,hadibu,12.65,54.0333,299.04,78,100,9.34,YE,1722022776
439,sechura,-5.5569,-80.8222,296.94,57,10,6.79,PE,1722022551
440,lata,40.1629,-8.3327,293.75,90,50,1.77,PT,1722022778
441,kermanshah,34.3142,47.065,301.65,17,0,5.14,IR,1722022779
442,safotu,-13.4513,-172.4018,300.22,82,41,7.17,WS,1722022780
443,rakops,-21.0167,24.3333,292.43,11,0,1.98,BW,1722022782
444,cam ranh,11.9214,109.1591,302.13,70,20,3.09,VN,1722022783
445,zavodoukovsk,56.5042,66.5515,289.49,97,81,4.1,RU,1722022784
446,marsh harbour,26.5412,-77.0636,302.06,70,10,5.71,BS,1722022785
447,pau brasil,-15.4642,-39.6511,296.9,71,40,2.3,BR,1722022786
448,luderitz,-26.6481,15.1594,286.07,79,62,2.82,NA,1722022787
449,acapulco de juarez,16.8634,-99.8901,304.05,74,0,6.17,MX,1722022526
450,zouerate,22.7187,-12.4521,312.78,13,8,5.02,MR,1722022790
451,lincoln,40.8,-96.667,307.52,53,0,4.63,US,1722022701
452,saudarkrokur,65.7461,-19.6394,282.13,93,100,0.22,IS,1722022792
453,yuzhno-kurilsk,44.0306,145.8556,285.96,94,18,1.66,RU,1722022793
454,palafrugell,41.9174,3.1631,300.07,47,65,0.45,ES,1722022794
455,kruisfontein,-34.0033,24.7314,283.09,88,3,2.49,ZA,1722022795
456,undurkhaan,47.3194,110.6556,289.77,93,99,2.32,MN,1722022797
457,nongstoin,25.5167,91.2667,293.23,96,100,1.7,IN,1722022798
458,federal,-30.9547,-58.7833,293.51,58,0,2.84,AR,1722022799
459,massaguet,12.4755,15.4365,303.89,55,100,1.51,TD,1722022800
460,port saint john's,-31.6229,29.5448,291.1,69,76,1.51,ZA,1722022801
461,al buraymi,24.2509,55.7931,308.83,21,0,2.06,OM,1722022802
462,camarinas,43.1311,-9.1817,291.44,91,94,7.04,ES,1722022804
463,belyy yar,53.6039,91.3903,294.09,88,0,1.0,RU,1722022805
464,yanchep,-31.55,115.6833,287.01,75,57,2.47,AU,1722022806
465,kourou,5.1552,-52.6478,297.18,76,96,1.97,GF,1722022807
466,sept-iles,50.2001,-66.3821,296.51,39,40,5.66,CA,1722022520
467,polyarnyy,69.1989,33.4478,290.59,68,9,1.58,RU,1722022809
468,lijiang,26.8688,100.2207,289.01,94,99,0.9,CN,1722022810
469,chunskiy,56.0815,99.6342,289.71,89,3,1.29,RU,1722022811
470,timberlake,37.3207,-79.2575,301.04,65,40,3.6,US,1722022813
471,saint croix,17.7397,-64.7388,303.13,75,92,3.58,VI,1722022814
472,amurzet,47.6967,131.0981,292.51,98,100,6.96,RU,1722022815
473,fale old settlement,-9.3852,-171.2468,301.01,67,92,1.19,TK,1722022816
474,monte alegre,-2.0078,-54.0692,306.14,43,100,1.72,BR,1722022817
475,corn island,12.1694,-83.0418,301.37,81,12,7.81,NI,1722022818
476,arraial do cabo,-22.9661,-42.0278,300.13,61,0,5.14,BR,1722022819
477,tamanrasset,22.785,5.5228,306.1,11,0,2.57,DZ,1722022821
478,busayra,30.7376,35.6078,294.92,62,0,3.57,JO,1722022822
479,cabinda,-5.55,12.2,296.23,83,75,2.06,AO,1722022793
480,filadelfia,39.9523,-75.1638,303.49,42,75,4.12,US,1722022730
481,winnemucca,40.973,-117.7357,305.18,12,0,4.63,US,1722022825
482,chittagong,22.9167,91.5,300.03,90,88,5.3,BD,1722022826
483,strezhevoy,60.7333,77.5889,286.25,91,5,3.91,RU,1722022830
484,oyama,36.3,139.8,302.36,80,100,0.99,JP,1722022831
485,opochka,56.7105,28.6617,289.97,92,0,2.78,RU,1722022832
486,griffith,41.5284,-87.4237,301.09,50,0,2.24,US,1722022833
487,anar darah,32.7587,61.654,305.9,21,0,4.72,AF,1722022834
488,ola,59.5833,151.2833,285.59,57,4,4.18,RU,1722022836
489,panji,-7.7253,114.0995,295.8,78,11,2.28,ID,1722022837
490,keflavik,64.0049,-22.5624,286.1,100,100,6.69,IS,1722022838
491,taroa,8.7058,171.2275,301.66,80,100,8.12,MH,1722022839
492,caleta de carquin,-11.0925,-77.6267,292.0,74,20,5.38,PE,1722022840
493,bongor,10.2806,15.3722,299.86,72,98,2.64,TD,1722022841
494,sydney,-33.8679,151.2073,282.24,88,100,4.12,AU,1722022359
495,pointe-noire,-4.7761,11.8635,295.19,83,20,2.06,CG,1722022843
496,slobozia,46.7281,29.7078,291.37,83,100,1.88,MD,1722022845
497,antofagasta,-23.65,-70.4,287.75,78,9,2.9,CL,1722022623
498,santa ana,33.7456,-117.8678,308.88,53,0,4.12,US,1722022847
499,shenjiamen,29.9576,122.298,300.78,87,100,14.33,CN,1722022848
500,minas de matahambre,22.5887,-83.9447,302.74,67,76,1.74,CU,1722022849
501,el tigre,8.8875,-64.2454,301.6,69,100,4.47,VE,1722022850
502,nenjiang,49.1833,125.2167,291.86,79,100,3.6,CN,1722022853
503,carnarvon,-24.8667,113.6333,289.11,63,0,5.51,AU,1722022854
504,atescatempa,14.1744,-89.7425,301.47,62,99,2.79,GT,1722022855
505,villa gesell,-37.2639,-56.973,284.85,71,55,4.41,AR,1722022858
506,les anglais,18.3054,-74.2197,302.62,69,100,4.13,HT,1722022860
507,vanimo,-2.6741,141.3028,297.72,90,100,2.85,PG,1722022861
508,turpan,42.9333,89.1667,311.6,16,100,1.54,CN,1722022862
509,lagoa,39.05,-27.9833,296.58,90,32,8.26,PT,1722022863
510,paracatu,-17.2222,-46.8747,299.52,24,6,2.08,BR,1722022864
511,ar raqqah,35.95,39.0167,301.69,55,0,9.73,SY,1722022865
512,marilia,-22.2139,-49.9458,298.42,28,83,1.63,BR,1722022866
513,sardulgarh,29.7,75.25,305.35,66,52,2.96,IN,1722022867
514,vanersborg,58.3807,12.3234,290.43,88,100,4.63,SE,1722022869
515,magadan,59.5667,150.8,285.68,57,1,4.41,RU,1722022870
516,sinop,41.7711,34.8709,290.33,98,100,1.09,TR,1722022871
517,fuglafjordur,62.244,-6.814,284.41,90,100,6.43,FO,1722022872
518,vondrozo,-22.8167,47.2833,288.21,98,11,0.51,MG,1722022873
519,bonthe,7.5264,-12.505,298.18,84,100,5.04,SL,1722022874
520,mil'kovo,55.6078,37.7956,294.06,47,21,1.22,RU,1722022875
521,schweizer-reneke,-27.1887,25.3293,282.63,17,0,3.14,ZA,1722022877
522,san andres,12.5847,-81.7006,305.16,70,20,5.66,CO,1722022878
523,akureyri,65.6835,-18.0878,283.11,87,75,4.63,IS,1722022879
524,baki,-7.6128,110.7839,294.72,90,99,2.63,ID,1722022880
525,walvis bay,-22.9575,14.5053,285.42,82,0,3.87,NA,1722022881
526,coahuayana de hidalgo,18.7,-103.6583,306.29,52,79,3.5,MX,1722022882
527,selibaby,15.159,-12.1829,305.8,54,93,5.12,MR,1722022884
528,attock city,33.7731,72.3741,308.91,47,0,3.68,PK,1722022885
529,puerto baquerizo moreno,-0.9,-89.6,295.7,73,75,8.23,EC,1722022807
530,pont rouge,48.8833,-72.0825,298.21,44,36,1.08,CA,1722022887
531,yerofey pavlovich,53.9667,121.9667,289.49,78,7,1.64,RU,1722022888
532,balqash,46.8481,74.995,296.43,62,45,3.09,KZ,1722022889
533,al kharj,24.155,47.3346,312.47,15,73,2.27,SA,1722022890
534,terbanggi besar,-4.8667,105.2333,295.97,89,0,2.46,ID,1722022892
535,brandon,27.9378,-82.2859,308.28,65,40,2.06,US,1722022598
536,dryden,49.7833,-92.7503,301.31,61,0,9.77,CA,1722022894
537,kuala terengganu,5.3302,103.1408,301.12,94,20,1.54,MY,1722022895
538,san carlos centro,-31.7286,-61.0919,295.81,43,3,1.57,AR,1722022896
539,acarau,-2.8856,-40.12,299.95,70,56,8.55,BR,1722022897
540,mount pleasant,32.7941,-79.8626,304.15,80,75,5.66,US,1722022686
541,banjarmasin,-3.3244,114.591,299.23,96,3,1.07,ID,1722022900
542,cozumel,20.5083,-86.9458,306.19,58,40,4.63,MX,1722022901
543,rio gallegos,-51.6226,-69.2181,277.18,75,0,7.2,AR,1722022427
544,tateyama,34.9833,139.8667,299.87,94,100,4.61,JP,1722022903
545,murun-kuren,49.6342,100.1625,287.47,87,15,1.59,MN,1722022904
546,takayama,36.1333,137.25,293.93,98,100,0.42,JP,1722022905
547,rampur,28.8167,79.0333,302.9,75,94,2.36,IN,1722022906
548,morant bay,17.8815,-76.4093,307.94,74,8,6.23,JM,1722022908
549,bhakkar,31.6253,71.0657,311.0,39,0,6.38,PK,1722022909
550,gamba,-2.65,10.0,294.95,90,100,3.19,GA,1722022910
551,taoudenni,22.6783,-3.9836,313.91,8,0,4.27,ML,1722022911
552,damavand,35.7178,52.065,299.23,24,0,3.95,IR,1722022912
553,lucapa,-8.4192,20.7447,294.67,13,1,1.67,AO,1722022913
554,tshikapa,-6.4167,20.8,298.84,20,29,1.21,CD,1722022914
555,sunnyside,46.3237,-120.0087,299.5,21,0,1.42,US,1722022915
556,navojoa,27.1,-109.4333,310.15,39,69,2.41,MX,1722022731
557,cestos city,5.46,-9.5828,297.55,86,100,4.56,LR,1722022918
558,pattani,6.75,100.4167,298.99,92,100,1.2,TH,1722022919
559,grande prairie,55.1667,-118.8027,288.25,72,75,7.72,CA,1722022920
560,usogorsk,63.4106,48.6872,286.93,54,100,1.87,RU,1722022921
561,shengli,37.4564,118.4856,299.14,94,35,3.97,CN,1722022922
562,zeribet el oued,34.6828,6.5111,310.68,15,0,2.79,DZ,1722022923
563,steamboat springs,40.485,-106.8317,298.98,44,75,2.57,US,1722022813
564,tambo,-14.8,-73.9167,285.73,32,29,6.55,PE,1722022926
565,luoyang,34.6836,112.4536,298.97,91,42,1.79,CN,1722022927
566,thunder bay,48.4001,-89.3168,299.1,57,75,8.23,CA,1722022851
567,arhribs,36.7936,4.3116,301.17,44,99,1.26,DZ,1722022929
568,martapura,-3.4167,114.85,299.2,94,3,0.51,ID,1722022930
569,general conesa,-40.1,-64.4333,286.15,22,0,7.56,AR,1722022931
570,noumea,-22.2763,166.4572,292.59,99,100,4.71,NC,1722022933
571,yeraliyev,43.2,51.65,300.31,50,100,4.53,KZ,1722022934
572,mirriah,13.7073,9.1501,304.59,49,100,5.49,NE,1722022935
573,altai,46.3722,96.2583,290.02,45,79,0.6,MN,1722022936
574,sampit,-2.5333,112.95,296.06,99,44,1.05,ID,1722022937
575,kabare,-2.4683,28.8242,291.77,54,69,1.11,CD,1722022938
576,palmira,3.5394,-76.3036,301.86,54,75,2.06,CO,1722022940
577,puerto aysen,-45.4,-72.7,278.08,99,100,3.39,CL,1722022941
