City_ID,City,Lat,Lng,Max Temp,Humidity,Cloudiness,Wind Speed,Country,Date
0,port-aux-francais,-49.35,70.2167,-1.8799999999999955,72,73,19.74,TF,1722037152
1,bela,25.9333,81.9833,30.99000000000001,67,97,3.84,IN,1722037155
2,port elizabeth,-33.918,25.5701,10.170000000000016,94,0,1.03,ZA,1722037156
3,kostomuksha,64.571,30.5767,16.08000000000004,77,18,1.97,RU,1722037157
4,hithadhoo,-0.6,73.0833,28.920000000000016,72,95,4.4,MV,1722037158
5,lebu,-37.6167,-73.65,6.82000000000005,71,4,3.92,CL,1722037159
6,albany,42.6001,-73.9662,23.27000000000004,54,2,4.49,US,1722036980
7,keflavik,64.0049,-22.5624,9.950000000000045,100,100,6.69,IS,1722037162
8,bredasdorp,-34.5322,20.0403,8.350000000000023,89,0,2.64,ZA,1722037163
9,salalah,17.0151,54.0924,25.05000000000001,94,100,3.09,OM,1722037164
10,nanao,37.05,136.9667,31.390000000000043,65,96,2.75,JP,1722037165
11,chonchi,-42.6128,-73.8092,6.560000000000002,87,41,5.17,CL,1722037166
12,mar del plata,-38.0023,-57.5575,10.610000000000014,93,0,8.05,AR,1722037167
13,papatowai,-46.5619,169.4708,13.090000000000032,75,100,0.34,NZ,1722037168
14,nezhinka,51.7676,55.3694,10.090000000000032,87,0,5.0,RU,1722037170
15,waitangi,-43.9535,-176.5597,11.010000000000048,94,7,2.68,NZ,1722037171
16,fu'an,27.0892,119.6453,26.05000000000001,99,100,1.82,CN,1722037172
17,shizunai-furukawacho,42.3339,142.3669,18.850000000000023,87,100,2.66,JP,1722037173
18,bilibino,68.0546,166.4372,7.920000000000016,56,83,1.6,RU,1722037175
19,olinda,-8.0089,-34.8553,25.850000000000023,73,40,7.2,BR,1722037176
20,adamstown,-25.066,-130.1015,20.28000000000003,74,100,6.57,PN,1722037178
21,college,64.8569,-147.8028,17.260000000000048,77,100,8.23,US,1722037179
22,susuman,62.7833,148.1667,12.939999999999998,48,6,0.85,RU,1722037180
23,ostrovskoye,57.8057,42.2433,14.960000000000036,70,68,2.18,RU,1722037181
24,smirnovo,54.5125,69.4222,14.990000000000009,84,41,6.56,KZ,1722037182
25,thompson,55.7435,-97.8558,27.090000000000032,32,20,9.77,CA,1722037183
26,badger,64.8,-147.5333,17.210000000000036,79,100,8.23,US,1722037185
27,ilulissat,69.2167,-51.1,5.010000000000048,87,75,3.6,GL,1722037186
28,georgetown,5.4112,100.3354,28.960000000000036,83,20,2.57,MY,1722037187
29,filey,54.21,-0.2892,12.720000000000027,84,61,0.89,GB,1722037188
30,edinburgh of the seven seas,-37.0676,-12.3116,11.020000000000039,64,83,4.76,SH,1722037189
31,barra de santo antonio,-9.4047,-35.5072,22.600000000000023,78,34,4.5,BR,1722037190
32,nova sintra,14.8667,-24.7167,25.680000000000007,82,37,1.34,CV,1722037191
33,alice springs,-23.7,133.8833,9.75,93,21,2.06,AU,1722037192
34,ust-nera,64.5667,143.2,16.57000000000005,40,67,2.02,RU,1722037194
35,budleigh salterton,50.6298,-3.3218,12.939999999999998,93,0,0.51,GB,1722037195
36,hirara,24.8,125.2833,29.920000000000016,89,75,10.8,JP,1722037196
37,afaahiti,-17.75,-149.2833,25.930000000000007,71,67,6.71,PF,1722037197
38,blackmans bay,-43.0167,147.3167,9.29000000000002,76,100,0.89,AU,1722037198
39,udachny,66.4167,112.4,15.600000000000023,43,54,0.6,RU,1722037199
40,wailua homesteads,22.0669,-159.378,26.180000000000007,77,75,8.75,US,1722037200
41,puerto natales,-51.7236,-72.4875,0.6899999999999977,98,99,1.69,CL,1722037201
42,tura,25.5198,90.2201,25.53000000000003,93,100,2.94,IN,1722037203
43,ola,59.5833,151.2833,15.860000000000014,47,1,0.93,RU,1722037204
44,anadyr,64.75,177.4833,9.28000000000003,70,100,7.0,RU,1722037206
45,punta arenas,-53.15,-70.9167,1.0600000000000023,86,40,11.32,CL,1722037011
46,mermoz boabab,14.7065,-17.4758,27.310000000000002,89,40,2.06,SN,1722037208
47,robore,-18.3333,-59.75,25.610000000000014,34,80,1.7,BO,1722037210
48,ribeira grande,38.5167,-28.7,23.760000000000048,88,17,1.34,PT,1722037211
49,walvis bay,-22.9575,14.5053,10.050000000000011,70,0,2.73,NA,1722037213
50,uliastay,47.7417,96.8444,18.24000000000001,49,76,2.29,MN,1722037214
51,thinadhoo,0.5333,72.9333,28.879999999999995,74,100,4.24,MV,1722037215
52,hovd,48.0056,91.6419,21.010000000000048,44,40,1.73,MN,1722037144
53,grytviken,-54.2811,-36.5092,-0.08999999999997499,84,86,5.74,GS,1722037218
54,dunedin,-45.8742,170.5036,12.110000000000014,72,99,0.81,NZ,1722037219
55,patiali,27.7167,79.0167,32.02000000000004,68,100,2.38,IN,1722037220
56,yenifakili,39.2114,35.0004,17.53000000000003,70,0,3.01,TR,1722037221
57,iqaluit,63.7506,-68.5145,5.850000000000023,65,40,11.32,CA,1722036924
58,ushuaia,-54.8,-68.3,0.8100000000000023,93,100,7.72,AR,1722037223
59,borba,-4.3878,-59.5939,26.0,68,42,1.36,BR,1722037225
60,avarua,-21.2078,-159.775,25.03000000000003,83,75,6.17,CK,1722037226
61,cooper's town,26.8667,-77.5167,28.480000000000018,74,14,5.47,BS,1722037227
62,fort mcmurray,56.7268,-111.381,19.730000000000018,68,100,9.26,CA,1722037228
63,akureyri,65.6835,-18.0878,8.960000000000036,93,75,2.57,IS,1722037229
64,al'met'yevsk,54.9044,52.3154,11.689999999999998,91,100,3.27,RU,1722037230
65,cole harbour,44.6724,-63.4751,21.650000000000034,78,54,3.89,CA,1722037174
66,talnakh,69.4865,88.3972,17.77000000000004,79,24,0.75,RU,1722037233
67,same,-4.0667,37.7333,16.730000000000018,90,33,0.14,TZ,1722037234
68,flying fish cove,-10.4217,105.6791,24.82000000000005,83,100,6.69,CX,1722037235
69,tynda,55.1667,124.7167,23.27000000000004,64,0,0.49,RU,1722037236
70,aberdeen,57.1437,-2.0981,11.410000000000025,100,50,1.03,GB,1722037159
71,yanam,16.7333,82.2167,23.720000000000027,94,100,3.21,IN,1722037238
72,cajabamba,-7.6167,-78.05,15.04000000000002,57,75,2.2,PE,1722037240
73,yellowknife,62.456,-114.3525,24.670000000000016,46,75,7.72,CA,1722037241
74,qaqortoq,60.7167,-46.0333,3.7600000000000477,82,41,2.43,GL,1722037242
75,buka,40.8108,69.1986,23.720000000000027,31,0,0.87,UZ,1722037243
76,zhezqazghan,47.7833,67.7667,21.08000000000004,34,6,2.73,KZ,1722037245
77,caleta de carquin,-11.0925,-77.6267,16.980000000000018,81,17,4.96,PE,1722037246
78,port blair,11.6667,92.75,27.910000000000025,85,96,8.97,IN,1722037247
79,margaret river,-33.95,115.0667,13.29000000000002,66,17,4.27,AU,1722037248
80,fale old settlement,-9.3852,-171.2468,27.910000000000025,69,61,2.53,TK,1722037249
81,ancud,-41.8697,-73.8203,8.390000000000043,81,73,9.54,CL,1722037251
82,hamilton,39.1834,-84.5333,28.02000000000004,45,0,4.63,US,1722037252
83,kruisfontein,-34.0033,24.7314,9.700000000000045,90,1,2.22,ZA,1722037254
84,bethel,41.3712,-73.414,26.379999999999995,64,3,1.41,US,1722037255
85,hermanus,-34.4187,19.2345,11.830000000000041,82,0,5.8,ZA,1722037256
86,broken hill,-31.95,141.4333,12.32000000000005,38,42,6.38,AU,1722037257
87,port mathurin,-19.6833,63.4167,22.53000000000003,77,6,7.67,MU,1722037258
88,lata,40.1629,-8.3327,18.370000000000005,94,56,1.85,PT,1722037259
89,crane,31.3974,-102.3501,34.460000000000036,20,0,3.48,US,1722037260
90,kapuskasing,49.4169,-82.4331,25.05000000000001,38,75,4.63,CA,1722037263
91,labrador city,52.9463,-66.9114,16.950000000000045,45,0,4.12,CA,1722037265
92,vorgashor,67.5833,63.95,8.379999999999995,94,100,1.97,RU,1722037266
93,safonovo,55.15,33.2167,14.230000000000018,92,44,1.28,RU,1722037267
94,lubuklinggau,-3.3,102.8667,22.200000000000045,85,7,0.91,ID,1722037268
95,camiri,-20.05,-63.5167,20.220000000000027,63,0,1.95,BO,1722037270
96,tozeur,33.9197,8.1335,31.220000000000027,51,3,12.35,TN,1722037271
97,lubaczow,50.157,23.1234,15.800000000000011,77,99,1.4,PL,1722037272
98,mount isa,-20.7333,139.5,18.870000000000005,68,100,3.09,AU,1722037273
99,revda,56.801,59.9303,10.620000000000005,98,100,5.91,RU,1722037275
100,gond-pontouvre,45.6833,0.1667,21.370000000000005,74,0,1.54,FR,1722037276
101,saipan,15.1355,145.701,29.390000000000043,84,75,3.6,MP,1722037277
102,vilyuchinsk,52.9306,158.4028,20.150000000000034,80,69,1.05,RU,1722037278
103,olonkinbyen,70.9221,-8.7187,5.03000000000003,99,100,3.93,SJ,1722037279
104,czaplinek,53.5578,16.2333,14.860000000000014,85,93,2.76,PL,1722037280
105,jamestown,42.097,-79.2353,22.80000000000001,56,0,4.12,US,1722037281
106,calca,-13.3333,-71.95,16.640000000000043,76,22,2.81,PE,1722037283
107,maracas,-13.4411,-40.4308,15.54000000000002,97,55,2.83,BR,1722037284
108,ringkobing,56.0901,8.244,14.990000000000009,82,75,2.57,DK,1722037285
109,klyuchi,52.2667,79.1667,23.720000000000027,66,100,3.03,RU,1722037286
110,khadan khak,30.7477,67.7085,24.120000000000005,53,59,4.06,PK,1722037288
111,ponta delgada,37.7333,-25.6667,24.400000000000034,88,75,5.14,PT,1722037290
112,joshimath,30.5667,79.5667,18.08000000000004,88,69,0.91,IN,1722037291
113,kodiak,57.79,-152.4072,13.730000000000018,94,100,2.06,US,1722037292
114,codrington,-38.2667,141.9667,9.680000000000007,80,100,5.94,AU,1722037293
115,palmas,-10.2128,-48.3603,26.930000000000007,47,0,2.06,BR,1722037294
116,colonia,50.9333,6.95,19.980000000000018,87,100,1.54,DE,1722037168
117,katsuura,35.1333,140.3,25.980000000000018,95,99,3.99,JP,1722037296
118,vila do maio,15.1333,-23.2167,27.439999999999998,83,29,1.23,CV,1722037297
119,west island,-12.1568,96.8225,25.99000000000001,89,100,4.63,CC,1722037299
120,kodinsk,58.6881,99.1844,20.180000000000007,76,7,1.68,RU,1722037300
121,happy valley-goose bay,53.3168,-60.3315,17.170000000000016,51,20,4.63,CA,1722037301
122,dublin,37.7021,-121.9358,27.660000000000025,50,0,7.2,US,1722037302
123,camarinas,43.1311,-9.1817,21.210000000000036,90,97,6.71,ES,1722037303
124,virginia beach,36.8529,-75.978,24.470000000000027,87,75,3.6,US,1722037024
125,arkhangel'sk,64.5401,40.5433,10.060000000000002,81,0,3.0,RU,1722037305
126,westport,41.1415,-73.3579,27.08000000000004,55,25,1.34,US,1722037306
127,gakem,6.7658,8.9881,22.670000000000016,95,100,3.2,NG,1722037308
128,kone,-21.0595,164.8658,23.450000000000045,51,64,3.19,NC,1722037309
129,villa gesell,-37.2639,-56.973,8.920000000000016,79,35,4.69,AR,1722037029
130,acucena,-19.0731,-42.5464,15.29000000000002,84,6,1.5,BR,1722037311
131,port lincoln,-34.7333,135.8667,11.53000000000003,52,62,6.82,AU,1722037312
132,whitehorse,60.7161,-135.0538,21.170000000000016,54,40,5.66,CA,1722037313
133,greeley,40.4233,-104.7091,29.660000000000025,45,83,0.45,US,1722037174
134,bay harbor,30.1471,-85.6146,28.30000000000001,78,75,2.06,US,1722037315
135,al hazm,16.1641,44.7769,28.010000000000048,38,94,3.53,YE,1722037317
136,kargasok,59.0556,80.8572,17.600000000000023,80,1,2.96,RU,1722037318
137,utrik,11.2278,169.8474,28.060000000000002,81,100,9.28,MH,1722037319
138,illapel,-31.6308,-71.1653,9.970000000000027,78,33,0.93,CL,1722037320
139,vilyuysk,63.7553,121.6247,18.610000000000014,57,23,2.73,RU,1722037321
140,rongelap,11.1635,166.8941,28.29000000000002,80,91,8.12,MH,1722037322
141,la'ie,21.6477,-157.9253,28.980000000000018,71,84,4.92,US,1722037323
142,aasiaat,68.7098,-52.8699,2.2200000000000273,96,100,4.54,GL,1722037325
143,fortuna,40.5982,-124.1573,18.850000000000023,80,0,6.17,US,1722037326
144,huanggang,23.677,116.9996,26.939999999999998,95,100,7.5,CN,1722037327
145,salym,60.0625,71.4789,14.920000000000016,96,100,5.3,RU,1722037328
146,uturoa,-16.7333,-151.4333,25.180000000000007,69,37,6.0,PF,1722037329
147,harper,4.375,-7.7169,24.07000000000005,88,100,4.06,LR,1722037330
148,minas de marcona,-15.2119,-75.1103,10.220000000000027,87,13,5.85,PE,1722037332
149,yanchep,-31.55,115.6833,12.75,61,74,2.45,AU,1722037333
150,novo aripuana,-5.1206,-60.3797,29.400000000000034,47,41,1.55,BR,1722037334
151,concordia,-31.393,-58.0209,16.55000000000001,72,19,2.5,AR,1722037221
152,jinghong,21.991,100.7341,23.430000000000007,92,95,0.58,CN,1722037337
153,st. john's,47.5649,-52.7093,17.860000000000014,92,75,3.09,CA,1722037108
154,tiksi,71.6872,128.8694,7.400000000000034,72,21,2.24,RU,1722037339
155,saint-francois,46.4154,3.9054,19.25,94,0,1.03,FR,1722037340
156,chala,-7.5833,31.2667,12.400000000000034,24,0,2.14,TZ,1722037341
157,martaban,16.5314,97.6111,25.060000000000002,94,100,2.37,MM,1722037342
158,lompoc,34.6391,-120.4579,23.29000000000002,74,0,8.23,US,1722037343
159,mormugao,15.4,73.8,26.590000000000032,69,100,5.14,IN,1722037345
160,kavaratti,10.5669,72.642,28.210000000000036,87,100,9.07,IN,1722037347
161,atafu village,-8.5421,-172.5159,28.090000000000032,66,82,2.08,TK,1722037348
162,puerto ayora,-0.7393,-90.3518,20.310000000000002,92,40,1.79,EC,1722037349
163,slave lake,55.2834,-114.769,13.990000000000009,88,100,12.35,CA,1722037350
164,cavalaire-sur-mer,43.174,6.5272,22.400000000000034,66,0,1.71,FR,1722037351
165,taber,49.8167,-112.1518,26.0,17,0,7.72,CA,1722037353
166,turpan,42.9333,89.1667,38.06,18,97,0.22,CN,1722037354
167,invercargill,-46.4,168.35,10.57000000000005,96,100,0.45,NZ,1722037252
168,mana,5.6592,-53.7767,26.04000000000002,85,91,2.95,GF,1722037356
169,veraval,20.9,70.3667,27.600000000000023,87,100,9.08,IN,1722037357
170,polyarnyy,69.1989,33.4478,16.129999999999995,60,9,4.86,RU,1722037358
171,lubang,13.8584,120.124,28.760000000000048,77,100,6.17,PH,1722037360
172,bardai,11.65,7.2333,21.910000000000025,92,98,3.6,NG,1722037361
173,kolda,12.8833,-14.95,27.170000000000016,89,0,3.09,SN,1722037362
174,khenifra,32.9333,-5.6667,25.24000000000001,31,1,1.17,MA,1722037363
175,kenai,60.5544,-151.2583,16.189999999999998,64,0,10.8,US,1722037364
176,ketchikan,55.3422,-131.6461,18.260000000000048,63,100,2.57,US,1722037365
177,mount pearl,47.5166,-52.7813,17.400000000000034,92,75,3.09,CA,1722037366
178,juneau,58.3019,-134.4197,16.900000000000034,72,100,4.12,US,1722037367
179,tommot,58.9564,126.2925,26.52000000000004,62,2,1.71,RU,1722037369
180,barah,13.7,30.3667,24.860000000000014,75,100,7.25,SD,1722037370
181,enewetak,11.3474,162.3373,28.439999999999998,78,90,8.85,MH,1722037371
182,muroto-misakicho,33.2833,134.15,28.160000000000025,82,100,3.25,JP,1722037372
183,yuzhno-kurilsk,44.0306,145.8556,17.49000000000001,76,13,1.34,RU,1722037373
184,sur,22.5667,59.5289,32.32000000000005,51,92,3.9,OM,1722037374
185,dadukou,26.5479,101.7054,23.980000000000018,89,90,1.0,CN,1722037375
186,hobyo,5.3505,48.5268,24.25,87,20,9.86,SO,1722037377
187,qionghai,19.2425,110.4642,28.04000000000002,87,100,1.18,CN,1722037378
188,apiai,-24.5094,-48.8425,15.879999999999995,64,100,1.17,BR,1722037379
189,nemuro,43.3236,145.575,14.330000000000041,87,59,2.06,JP,1722037380
190,tvoroyri,61.5556,-6.8111,11.270000000000039,92,83,8.95,FO,1722037381
191,sombrerete,23.6333,-103.65,20.460000000000036,39,93,4.45,MX,1722037382
192,petropavlovsk-kamchatsky,53.0452,158.6483,19.33000000000004,56,40,2.0,RU,1722037385
193,santana,-0.0583,-51.1817,28.100000000000023,83,20,4.63,BR,1722037386
194,soller,39.7662,2.7152,26.03000000000003,84,0,1.53,ES,1722037387
195,zeya,53.75,127.2667,26.03000000000003,53,11,0.98,RU,1722037388
196,bismarck,46.8083,-100.7837,25.910000000000025,38,0,3.6,US,1722037387
197,glen innes,-29.7333,151.7333,10.210000000000036,93,100,3.62,AU,1722037390
198,bandon,51.7469,-8.7425,11.770000000000039,94,99,3.4,IE,1722037392
199,iskateley,67.6803,53.1512,7.53000000000003,82,100,3.25,RU,1722037393
200,tolanaro,-25.0319,46.9987,18.04000000000002,88,20,2.06,MG,1722037394
201,oneida,43.2001,-75.4663,24.120000000000005,50,20,5.66,US,1722037298
202,souillac,-20.5167,57.5167,17.210000000000036,94,20,2.57,MU,1722037396
203,baihe,22.15,107.2333,30.180000000000007,78,98,0.81,CN,1722037397
204,constitucion,-35.3333,-72.4167,7.840000000000032,73,95,2.89,CL,1722037398
205,piti village,13.4626,144.6933,29.610000000000014,81,100,2.06,GU,1722037400
206,yaren,-0.5472,166.916,28.75,70,56,6.19,NR,1722037401
207,polokwane,-23.9045,29.4688,7.470000000000027,87,8,1.54,ZA,1722037402
208,kavieng,-2.5744,150.7967,27.99000000000001,77,85,2.8,PG,1722037403
209,talcahuano,-36.7167,-73.1167,8.82000000000005,71,0,5.14,CL,1722037398
210,penza,53.2007,45.0046,12.660000000000025,67,68,1.78,RU,1722037405
211,alotau,-10.3069,150.4462,25.689999999999998,68,100,2.8,PG,1722037406
212,sychevka,55.8252,34.2736,14.100000000000023,76,8,2.09,RU,1722037407
213,vallenar,-28.5708,-70.7581,17.129999999999995,35,0,0.35,CL,1722037409
214,nar'yan-mar,67.6713,53.087,7.5400000000000205,82,100,3.19,RU,1722037410
215,olutanga,7.3106,122.8464,28.189999999999998,75,100,2.02,PH,1722037411
216,takoradi,4.8845,-1.7554,23.480000000000018,92,9,3.52,GH,1722037412
217,hotan,37.0997,79.9269,27.52000000000004,24,0,1.02,CN,1722037413
218,vila velha,-20.3297,-40.2925,23.970000000000027,82,20,3.09,BR,1722037414
219,hawaiian paradise park,19.5933,-154.9731,28.260000000000048,70,0,5.14,US,1722037415
220,guarapari,-20.6667,-40.4975,23.27000000000004,91,0,4.56,BR,1722037416
221,sao jose da coroa grande,-8.8978,-35.1478,23.82000000000005,81,21,4.91,BR,1722037418
222,flin flon,54.7682,-101.865,19.910000000000025,52,75,6.17,CA,1722037419
223,hadibu,12.65,54.0333,25.620000000000005,79,100,9.04,YE,1722037420
224,babahoyo,-1.8167,-79.5167,26.29000000000002,70,78,1.69,EC,1722037208
225,paita,-5.0892,-81.1144,17.600000000000023,83,3,7.02,PE,1722037422
226,okahao,-17.885,15.0667,14.370000000000005,19,0,4.07,NA,1722037424
227,la sarre,48.8002,-79.1996,19.82000000000005,74,74,2.46,CA,1722037426
228,dryden,49.7833,-92.7503,29.160000000000025,61,0,7.72,CA,1722037427
229,bethanie,-26.4833,17.15,7.710000000000036,35,14,1.02,NA,1722037428
230,cova figueira,14.8905,-24.2934,20.150000000000034,84,55,0.66,CV,1722037429
231,puerto baquerizo moreno,-0.9,-89.6,20.010000000000048,80,27,5.02,EC,1722037207
232,ha long,20.9511,107.08,29.77000000000004,83,80,2.24,VN,1722037431
233,amos,48.5669,-78.1162,19.560000000000002,76,59,1.0,CA,1722037432
234,padangsidempuan,1.3667,99.2667,22.410000000000025,93,95,0.68,ID,1722037433
235,jutai,-5.1833,-68.9,26.689999999999998,69,99,1.15,BR,1722037435
236,kismayo,-0.3582,42.5454,24.460000000000036,83,18,6.92,SO,1722037436
237,guerrero negro,27.9769,-114.0611,23.060000000000002,72,40,7.74,MX,1722037437
238,khilok,51.3674,110.4676,17.060000000000002,89,99,0.32,RU,1722037438
239,tiruchchendur,8.4833,78.1167,27.439999999999998,75,99,3.61,IN,1722037439
240,korla,41.7597,86.1469,28.04000000000002,30,6,3.33,CN,1722037440
241,east london,-33.0153,27.9116,16.200000000000045,69,33,2.08,ZA,1722037441
242,tazovsky,67.4667,78.7,9.439999999999998,94,96,2.52,RU,1722037443
243,bakaly,55.1789,53.8028,11.460000000000036,92,100,6.89,RU,1722037444
244,birendranagar,28.6019,81.6339,25.53000000000003,80,100,1.73,NP,1722037445
245,cabo san lucas,22.8909,-109.9124,34.610000000000014,37,0,8.75,MX,1722037331
246,swan hill,-35.3378,143.5544,11.970000000000027,45,67,5.48,AU,1722037447
247,bandar lampung,-5.4254,105.258,23.140000000000043,87,0,0.34,ID,1722037448
248,jamaame,0.0697,42.745,23.870000000000005,85,57,4.99,SO,1722037449
249,princeville,45.7668,-61.2985,19.170000000000016,85,40,6.17,CA,1722037451
250,fort st. john,56.2499,-120.8529,18.939999999999998,68,75,6.17,CA,1722037452
251,tshikapa,-6.4167,20.8,21.350000000000023,24,9,0.8,CD,1722037453
252,alofi,-19.0595,-169.9187,24.939999999999998,78,75,7.72,NU,1722037454
253,fengtai,39.5581,117.7492,26.80000000000001,81,7,3.86,CN,1722037455
254,stanley,54.868,-1.6985,10.850000000000023,87,18,2.31,GB,1722037456
255,kedougou,12.5579,-12.1743,28.32000000000005,89,0,1.03,SN,1722037457
256,saint-philippe,-21.3585,55.7679,19.77000000000004,71,3,0.94,RE,1722037458
257,charlottetown,46.2352,-63.1267,19.29000000000002,79,20,4.63,CA,1722037362
258,al jawf,29.5,38.75,26.82000000000005,45,34,4.79,SA,1722037461
259,portland,45.5234,-122.6762,29.80000000000001,36,20,5.14,US,1722037203
260,kerikeri,-35.2268,173.9474,17.170000000000016,72,14,2.24,NZ,1722037464
261,forster,-32.1667,152.5167,12.430000000000007,100,92,2.57,AU,1722037465
262,mhamid,29.82,-5.72,37.83000000000004,13,98,4.69,MA,1722037466
263,blenheim,-41.516,173.9528,13.620000000000005,69,86,2.01,NZ,1722037468
264,papao,-17.75,-149.55,26.82000000000005,69,55,6.37,PF,1722037469
265,devils lake,48.1128,-98.8651,22.99000000000001,60,0,2.06,US,1722037467
266,kon tum,14.35,108.0,22.370000000000005,99,100,1.25,VN,1722037471
267,tezu,27.9167,96.1667,26.140000000000043,90,99,1.97,IN,1722037472
268,berdigestyakh,62.0989,126.6992,17.620000000000005,75,99,3.96,RU,1722037473
269,dazhong,33.1997,120.4578,27.939999999999998,87,100,9.91,CN,1722037474
270,vadso,70.0744,29.7487,19.49000000000001,88,20,2.57,NO,1722037475
271,nishinoomote,30.7333,131.0,30.310000000000002,89,75,4.63,JP,1722037476
272,carnarvon,-24.8667,113.6333,15.260000000000048,56,0,4.91,AU,1722037478
273,humberto de campos,-2.5983,-43.4611,23.730000000000018,80,55,1.59,BR,1722037479
274,tianpeng,30.9866,103.9393,25.260000000000048,76,100,0.41,CN,1722037480
275,nkhata bay,-11.6066,34.2907,18.510000000000048,34,0,2.17,MW,1722037481
276,puerto aysen,-45.4,-72.7,3.7200000000000273,92,100,4.09,CL,1722037482
277,glenrothes,56.1951,-3.1732,13.340000000000032,86,48,1.68,GB,1722037483
278,isafjordur,66.0755,-23.124,6.770000000000039,97,99,1.24,IS,1722037484
279,quellon,-43.1167,-73.6167,7.720000000000027,82,57,8.04,CL,1722037486
280,faya-largeau,17.9257,19.1043,35.84000000000003,30,71,3.94,TD,1722037487
281,sitka,57.0531,-135.33,15.939999999999998,72,75,4.12,US,1722037488
282,al wakrah,24.85,51.3333,35.05000000000001,26,0,3.65,QA,1722037489
283,yarmouth,41.7057,-70.2286,24.189999999999998,73,0,2.57,US,1722037283
284,traverse city,44.7631,-85.6206,24.110000000000014,60,51,1.27,US,1722037492
285,port macquarie,-31.4333,152.9167,15.970000000000027,72,76,2.49,AU,1722037493
286,nova xavantina,-14.6667,-52.35,22.860000000000014,31,1,0.39,BR,1722037494
287,kutum,14.2,24.6667,22.80000000000001,73,92,7.07,SD,1722037495
288,inirida,3.8653,-67.9239,23.939999999999998,97,100,1.29,CO,1722037469
289,mirnyy,62.5353,113.9611,16.629999999999995,89,97,2.6,RU,1722037497
290,vila franca do campo,37.7167,-25.4333,24.230000000000018,91,16,4.37,PT,1722037498
291,sao vicente,-23.9631,-46.3919,25.710000000000036,64,100,0.68,BR,1722037209
292,igarka,67.4667,86.5833,15.960000000000036,89,77,2.14,RU,1722037501
293,bayanhongor,46.7167,100.1167,13.710000000000036,63,98,0.84,MN,1722037502
294,vinh,18.6667,105.6667,27.879999999999995,82,95,2.1,VN,1722037503
295,libreville,0.3925,9.4537,25.010000000000048,83,40,3.09,GA,1722037323
296,dudinka,69.4058,86.1778,15.720000000000027,88,14,2.76,RU,1722037505
297,port douglas,-16.4833,145.4667,22.920000000000016,75,56,3.93,AU,1722037506
298,praia da vitoria,38.7333,-27.0667,24.140000000000043,78,20,4.19,PT,1722037507
299,manokwari,-0.8667,134.0833,27.850000000000023,72,36,0.89,ID,1722037509
300,novyy turtkul',41.55,61.0167,22.950000000000045,28,13,4.83,UZ,1722037510
301,xudat,41.631,48.681,21.75,83,38,2.32,AZ,1722037511
302,onega,63.9061,38.1404,11.600000000000023,73,5,1.05,RU,1722037512
303,lihue,21.9789,-159.3672,26.52000000000004,73,75,8.75,US,1722037513
304,khuldabad,20.05,75.1833,23.090000000000032,91,100,7.75,IN,1722037514
305,saldanha,-33.0117,17.9442,13.03000000000003,90,3,5.58,ZA,1722037515
306,quelimane,-17.8786,36.8883,18.460000000000036,91,0,1.88,MZ,1722037517
307,namdrik,5.5994,168.1028,28.49000000000001,78,93,4.77,MH,1722037518
308,villa tecolutilla,18.2833,-93.3167,28.350000000000023,82,39,4.41,MX,1722037519
309,kirakira,-10.4544,161.9205,28.370000000000005,69,95,3.88,SB,1722037520
310,klaksvik,62.2266,-6.589,11.510000000000048,91,98,9.55,FO,1722037521
311,ko pha ngan,9.7578,100.0291,27.379999999999995,76,100,5.84,TH,1722037522
312,puquio,-14.7,-74.1333,9.680000000000007,45,7,1.51,PE,1722037524
313,spanish wells,26.323,-81.7957,29.980000000000018,49,100,0.0,US,1722037525
314,pipri,19.8,75.5333,23.620000000000005,88,100,7.72,IN,1722037526
315,zheleznodorozhnyy,55.7503,38.0042,18.140000000000043,55,45,2.35,RU,1722037527
316,ulaangom,49.9811,92.0667,24.02000000000004,42,100,1.33,MN,1722037528
317,zaozersk,69.4005,32.4476,16.28000000000003,58,10,2.66,RU,1722037529
318,yurimaguas,-5.9,-76.0833,30.090000000000032,66,40,2.06,PE,1722037530
319,sansanne-mango,10.3592,0.4708,24.04000000000002,91,85,2.53,TG,1722037532
320,poronaysk,49.2167,143.1167,17.920000000000016,80,2,2.74,RU,1722037533
321,itanhem,-17.1664,-40.33,19.510000000000048,88,22,2.56,BR,1722037534
322,puerto deseado,-47.7503,-65.8938,8.770000000000039,49,100,13.43,AR,1722037535
323,pierre,44.3683,-100.351,39.51000000000005,24,0,9.77,US,1722037536
324,holualoa,19.6228,-155.9522,26.910000000000025,79,40,7.72,US,1722037250
325,cidreira,-30.1811,-50.2056,16.170000000000016,91,55,3.73,BR,1722037347
326,remire-montjoly,4.9167,-52.2667,24.02000000000004,94,58,1.54,GF,1722037540
327,bonthe,7.5264,-12.505,24.689999999999998,85,100,4.49,SL,1722037541
328,pampa,35.5362,-100.9599,34.76000000000005,31,0,7.72,US,1722037542
329,prado,-17.3411,-39.2208,22.840000000000032,80,0,2.88,BR,1722037257
330,sarmiento,-45.5882,-69.07,7.270000000000039,54,37,15.37,AR,1722037544
331,gadzhiyevo,69.2551,33.3362,16.420000000000016,57,9,4.81,RU,1722037545
332,la passe,45.5549,-0.8967,21.129999999999995,94,82,2.75,FR,1722037547
333,woodward,36.4337,-99.3904,33.57000000000005,39,0,6.17,US,1722037548
334,bowen,-20.0167,148.2333,21.390000000000043,73,91,4.01,AU,1722037549
335,ceeldheer,3.8488,47.1806,24.120000000000005,88,53,7.22,SO,1722037550
336,qiongshan,20.0058,110.3542,26.99000000000001,100,0,1.0,CN,1722037551
337,gilgit,35.9221,74.3087,26.5,34,0,0.8,PK,1722037449
338,bamboo flat,11.7,92.7167,27.450000000000045,85,95,8.73,IN,1722037554
339,beloyarskiy,63.7119,66.6722,11.220000000000027,75,100,2.67,RU,1722037555
340,brisas de zicatela,15.8369,-97.0419,29.660000000000025,71,37,2.8,MX,1722037556
341,manado,1.487,124.8455,28.430000000000007,78,20,1.54,ID,1722037557
342,kalianget,-7.05,113.9333,27.189999999999998,71,59,5.0,ID,1722037558
343,zholymbet,51.7433,71.7122,15.760000000000048,65,0,3.84,KZ,1722037559
344,sault ste. marie,46.5168,-84.3333,24.160000000000025,42,0,3.6,CA,1722037313
345,cooma,-36.2333,149.1333,9.350000000000023,38,1,2.53,AU,1722037562
346,queenstown,-31.8976,26.8753,4.580000000000041,75,7,1.0,ZA,1722037563
347,tadine,-21.55,167.8833,21.410000000000025,60,13,5.42,NC,1722037564
348,port isabel,26.0734,-97.2086,31.02000000000004,74,20,5.14,US,1722037565
349,kupang,-10.1667,123.5833,27.32000000000005,83,75,5.14,ID,1722037566
350,zawadzkie,50.605,18.4847,21.370000000000005,81,100,0.73,PL,1722037568
351,cartagena,10.3997,-75.5144,25.79000000000002,94,40,2.57,CO,1722037569
352,prior lake,44.7133,-93.4227,28.860000000000014,73,0,3.6,US,1722037570
353,maxixe,-23.8597,35.3472,18.810000000000002,84,0,2.78,MZ,1722037571
354,katsuren-haebaru,26.3369,127.8719,30.220000000000027,83,75,7.2,JP,1722037572
355,kapa'a,22.0752,-159.319,26.930000000000007,76,75,8.75,US,1722037513
356,sabratah,32.7933,12.4885,27.870000000000005,50,0,4.72,LY,1722037574
357,midoun,33.8081,10.9923,26.920000000000016,69,0,6.13,TN,1722037576
358,myitkyina,25.3833,97.4,24.79000000000002,100,100,0.19,MM,1722037577
359,khandyga,62.6667,135.6,17.460000000000036,85,98,3.43,RU,1722037578
360,caluula,11.9661,50.7569,30.150000000000034,67,100,0.8,SO,1722037579
361,san antonio de pale,-1.4014,5.6325,22.920000000000016,88,98,5.14,GQ,1722037580
362,haiterbach,48.5333,8.65,18.710000000000036,93,66,0.87,DE,1722037581
363,concepcion del oro,24.6333,-101.4167,16.03000000000003,63,99,3.75,MX,1722037582
364,suoyarvi,62.0833,32.35,17.420000000000016,78,31,1.62,RU,1722037584
365,tsengel,49.4783,100.8894,16.04000000000002,78,3,1.11,MN,1722037585
366,abu dhabi,24.4667,54.3667,35.53000000000003,64,0,2.06,AE,1722037517
367,yashkul',46.1711,45.3435,24.340000000000032,33,95,2.7,RU,1722037587
368,island harbour,50.724,-1.2758,14.560000000000002,92,23,0.89,GB,1722037588
369,grand falls-windsor,48.9332,-55.6649,14.230000000000018,96,97,5.35,CA,1722037589
370,sundargarh,22.1167,84.0333,25.80000000000001,95,100,1.21,IN,1722037590
371,huarmey,-10.0681,-78.1522,17.160000000000025,84,1,4.66,PE,1722037591
372,mugia,43.1041,-9.2179,21.200000000000045,90,95,6.95,ES,1722037593
373,haiku-pauwela,20.9219,-156.3051,29.010000000000048,63,20,10.8,US,1722037594
374,howrah,22.5892,88.3103,28.0,100,75,2.06,IN,1722037595
375,monguno,12.6786,13.6079,28.310000000000002,64,98,6.56,NG,1722037596
376,sergeyevka,53.88,67.4158,14.980000000000018,75,98,8.01,KZ,1722037597
377,gaspe,48.8334,-64.4819,20.120000000000005,45,20,2.57,CA,1722037598
378,tsiombe,-25.3,45.4833,15.970000000000027,78,0,1.15,MG,1722037600
379,lapeer,43.0514,-83.3188,25.0,47,0,0.0,US,1722037601
380,berezovo,63.9381,65.0419,11.54000000000002,68,100,2.66,RU,1722037602
381,khovd,48.0056,91.6419,21.010000000000048,44,40,1.73,MN,1722037603
382,yarega,63.4354,53.5765,11.850000000000023,71,100,1.91,RU,1722037604
383,awjilah,29.1081,21.2869,29.700000000000045,40,0,7.64,LY,1722037605
384,santa vitoria,-18.8386,-50.1214,21.730000000000018,33,0,0.8,BR,1722037606
385,namie,37.4833,141.0,25.55000000000001,89,98,0.4,JP,1722037608
386,ylivieska,64.0833,24.55,14.620000000000005,94,12,0.56,FI,1722037609
387,lalganj,25.8667,85.1833,30.970000000000027,71,100,5.99,IN,1722037610
388,swakopmund,-22.6833,14.5333,9.990000000000009,83,0,1.78,NA,1722037611
389,yokadouma,3.5167,15.05,21.140000000000043,94,98,1.03,CM,1722037612
390,tamanrasset,22.785,5.5228,25.950000000000045,18,0,1.54,DZ,1722037613
391,sisimiut,66.9395,-53.6735,5.140000000000043,79,100,1.35,GL,1722037614
392,lazaro cardenas,17.9583,-102.2,30.0,67,39,5.3,MX,1722037617
393,pishva,35.308,51.7267,33.879999999999995,17,0,1.51,IR,1722037618
394,den burg,53.0542,4.7972,15.54000000000002,94,20,0.51,NL,1722037619
395,mount gambier,-37.8333,140.7667,7.760000000000048,88,100,4.56,AU,1722037620
396,palangkaraya,-2.2,113.8333,25.5,82,23,1.55,ID,1722037421
397,northam,51.0333,-4.2167,13.700000000000045,93,3,2.9,GB,1722037622
398,inari,68.906,27.0288,17.760000000000048,78,98,1.81,FI,1722037624
399,bannu,32.9854,70.6027,36.76000000000005,39,0,2.04,PK,1722037626
400,pemba,-12.974,40.5178,22.390000000000043,83,40,2.68,MZ,1722037627
401,emerald,-23.5333,148.1667,20.58000000000004,64,99,4.02,AU,1722037628
402,isla mujeres,21.2311,-86.731,30.650000000000034,79,48,3.73,MX,1722037629
403,malanje,-9.5402,16.341,16.55000000000001,40,0,1.64,AO,1722037631
404,kununurra,-15.7667,128.7333,25.99000000000001,38,96,3.09,AU,1722037632
405,constantia,44.1833,28.65,19.379999999999995,85,0,5.41,RO,1722037633
406,longyearbyen,78.2186,15.6401,9.910000000000025,81,75,1.03,SJ,1722037364
407,iquique,-20.2208,-70.1431,16.02000000000004,83,29,1.91,CL,1722037610
408,cill airne,52.05,-9.5167,12.550000000000011,89,95,2.2,IE,1722037636
409,san jose del guaviare,2.5729,-72.6459,25.060000000000002,85,70,1.16,CO,1722037637
410,vernon,50.2581,-119.2691,29.05000000000001,24,24,1.54,CA,1722037639
411,eraan,9.0629,117.7016,28.129999999999995,78,100,1.2,PH,1722037640
412,new norfolk,-42.7826,147.0587,10.510000000000048,76,93,1.44,AU,1722037641
413,labytnangi,66.6572,66.4183,11.25,85,100,1.41,RU,1722037642
414,las palmas,28.4204,-14.0131,21.439999999999998,73,0,5.14,ES,1722037643
415,lensk,60.7253,114.9278,25.650000000000034,66,4,2.87,RU,1722037645
416,robertsport,6.7533,-11.3686,24.49000000000001,85,100,5.67,LR,1722037646
417,arraial do cabo,-22.9661,-42.0278,22.24000000000001,82,79,4.89,BR,1722037647
418,mahajanga,-15.7167,46.3167,20.010000000000048,94,0,2.06,MG,1722037648
419,hun,29.1268,15.9477,28.350000000000023,49,0,5.16,LY,1722037649
420,pestravka,52.405,49.9583,12.75,67,77,3.65,RU,1722037651
421,necochea,-38.5473,-58.7368,8.860000000000014,71,35,4.37,AR,1722037501
422,harstad,68.799,16.5293,17.360000000000014,82,95,1.32,NO,1722037653
423,qamdo,31.1667,97.2333,8.939999999999998,88,100,1.18,CN,1722037654
424,berdyansk,46.7503,36.7944,25.560000000000002,53,73,7.44,UA,1722037655
425,driefontein,-27.0177,30.4498,6.600000000000023,43,0,2.4,ZA,1722037656
426,silver city,32.7701,-108.2803,27.980000000000018,28,100,4.63,US,1722037614
427,santa ana,33.7456,-117.8678,35.52000000000004,52,0,3.6,US,1722037517
428,o rosal,41.9354,-8.8368,20.680000000000007,93,63,4.64,ES,1722037660
429,palapye,-22.546,27.1251,13.360000000000014,61,1,3.0,BW,1722037661
430,coquimbo,-29.9533,-71.3436,11.850000000000023,79,0,4.12,CL,1722037484
431,igreja,15.0333,-24.3333,21.060000000000002,86,63,1.4,CV,1722037663
432,vorkuta,67.5,64.0,8.5,93,100,1.92,RU,1722037664
433,grand-lahou,5.1367,-5.0242,23.689999999999998,93,80,3.58,CI,1722037665
434,kottagudem,17.55,80.6333,24.379999999999995,92,100,4.04,IN,1722037666
435,west end,26.6833,-78.9667,29.99000000000001,70,45,2.87,BS,1722037668
436,verdal,63.7933,11.4817,15.020000000000039,95,92,1.37,NO,1722037587
437,manta,-0.95,-80.7333,23.879999999999995,83,100,4.12,EC,1722037670
438,kingston,17.997,-76.7936,31.53000000000003,62,20,6.69,JM,1722037550
439,pathardi,19.1667,75.1833,23.939999999999998,86,100,5.27,IN,1722037673
440,nagqu,31.5,92.0,7.0400000000000205,93,100,1.15,CN,1722037674
441,shenkursk,62.1091,42.896,12.550000000000011,70,100,1.95,RU,1722037675
442,yen bai,21.7,104.8667,29.07000000000005,76,91,0.82,VN,1722037677
443,najafabad,32.6344,51.3668,24.30000000000001,15,2,3.32,IR,1722037678
444,antofagasta,-23.65,-70.4,13.600000000000023,84,32,2.76,CL,1722037615
445,tanhacu,-14.0214,-41.2481,21.79000000000002,69,87,3.32,BR,1722037680
446,pacific grove,36.6177,-121.9166,24.25,82,20,4.63,US,1722037682
447,aral,40.5156,81.2636,29.700000000000045,27,78,5.44,CN,1722037683
448,pontes e lacerda,-15.2261,-59.3353,25.260000000000048,35,18,0.7,BR,1722037684
449,glace bay,46.1969,-59.957,19.939999999999998,81,12,1.79,CA,1722037685
450,matoury,4.8483,-52.3317,23.980000000000018,94,60,1.54,GF,1722037686
451,kimbe,-5.5502,150.1429,26.189999999999998,86,100,2.47,PG,1722037688
452,baracoa,20.3467,-74.4958,27.129999999999995,87,100,0.8,CU,1722037689
453,nova vicosa,-17.8919,-39.3719,22.350000000000023,81,6,3.14,BR,1722037690
454,boquira,-12.8231,-42.7306,21.74000000000001,60,76,3.05,BR,1722037691
455,laguna,38.421,-121.4238,38.43000000000001,22,0,8.75,US,1722037692
456,ta`u,-14.2336,-169.5144,27.24000000000001,77,18,7.21,AS,1722037693
457,encs,48.3333,21.1333,18.910000000000025,57,6,1.24,HU,1722037695
458,marsabit,2.3284,37.9899,17.970000000000027,62,78,9.13,KE,1722037696
459,rudnichnyy,59.617,52.4703,11.620000000000005,67,89,1.76,RU,1722037697
460,touros,-5.1989,-35.4608,23.32000000000005,84,10,5.33,BR,1722037699
461,turinskaya sloboda,57.6232,64.3858,14.390000000000043,99,100,4.54,RU,1722037700
462,port alfred,-33.5906,26.891,14.120000000000005,81,12,2.85,ZA,1722037701
463,tepetzintla,21.1667,-97.8333,26.100000000000023,86,64,3.85,MX,1722037702
464,saint-joseph,-21.3667,55.6167,19.210000000000036,67,2,1.42,RE,1722037703
465,cajati,-24.7361,-48.1228,18.730000000000018,80,100,0.23,BR,1722037704
466,banda aceh,5.5577,95.3222,27.390000000000043,70,81,5.3,ID,1722037706
467,pandan,14.0453,124.1694,29.55000000000001,69,86,1.21,PH,1722037707
468,fallon,39.4735,-118.7774,35.93000000000001,10,40,3.09,US,1722037708
469,zalingei,12.9096,23.4741,22.03000000000003,87,93,1.9,SD,1722037709
470,axim,4.8699,-2.2405,23.840000000000032,91,39,3.3,GH,1722037710
471,sesheke,-17.4759,24.2968,15.400000000000034,18,0,1.15,ZM,1722037711
472,beira,-19.8436,34.8389,18.05000000000001,93,0,2.24,MZ,1722037713
473,dourados,-22.2211,-54.8056,22.100000000000023,34,81,3.38,BR,1722037714
474,taoudenni,22.6783,-3.9836,37.879999999999995,9,0,5.27,ML,1722037715
475,praia,14.9215,-23.5087,27.30000000000001,74,40,1.54,CV,1722037716
476,kishtwar,33.3167,75.7667,21.28000000000003,94,41,0.4,IN,1722037717
477,nabire,-3.3667,135.4833,28.439999999999998,67,90,0.25,ID,1722037718
478,toliara,-23.35,43.6667,17.220000000000027,80,0,3.65,MG,1722037721
479,kete krachi,7.7939,-0.0498,24.379999999999995,88,42,4.92,GH,1722037722
480,fisterra,42.9049,-9.2629,21.120000000000005,89,87,7.12,ES,1722037723
481,luderitz,-26.6481,15.1594,12.660000000000025,70,68,2.16,NA,1722037724
482,sikasso,10.9167,-7.0,23.04000000000002,91,100,1.71,ML,1722037726
483,tosontsengel,48.7567,98.2839,15.920000000000016,66,100,1.86,MN,1722037727
484,uvarovo,51.9849,42.2615,12.57000000000005,73,10,2.37,RU,1722037728
485,weno,7.4515,151.8468,27.970000000000027,89,100,3.09,FM,1722037729
486,kencong,-8.2833,113.3667,23.939999999999998,81,22,0.96,ID,1722037730
487,pisco,-13.7,-76.2167,17.03000000000003,82,0,3.09,PE,1722037731
488,plettenberg bay,-34.0527,23.3716,11.890000000000043,82,3,1.42,ZA,1722037733
489,rajpur,22.3,74.35,24.629999999999995,94,100,6.87,IN,1722037734
490,kisanga,-7.4362,37.7034,18.99000000000001,85,0,0.81,TZ,1722037735
491,whakatane,-37.9585,176.9854,15.490000000000009,77,5,0.45,NZ,1722037737
492,turkmenbasy,40.0222,52.9552,27.430000000000007,47,0,3.09,TM,1722037738
493,caleta olivia,-46.4393,-67.5281,9.590000000000032,47,81,12.34,AR,1722037720
494,bam,29.106,58.357,33.05000000000001,15,100,4.56,IR,1722037740
495,lulea,65.5842,22.1547,18.04000000000002,88,52,3.6,SE,1722037741
496,newman,37.3138,-121.0208,41.129999999999995,26,0,2.24,US,1722037742
497,okhotsk,59.3833,143.3,14.310000000000002,91,100,1.3,RU,1722037744
498,palikir - national government center,6.9248,158.1611,30.470000000000027,79,100,4.63,FM,1722037745
499,dogansehir,38.0919,37.8789,21.590000000000032,59,16,2.59,TR,1722037746
500,cambria,35.5641,-121.0808,34.58000000000004,55,10,5.67,US,1722037747
501,santa marta,11.2408,-74.199,31.03000000000003,74,75,3.09,CO,1722037681
502,dwarka,22.2394,68.9678,27.879999999999995,86,100,8.27,IN,1722037750
503,kalabo,-14.97,22.6814,16.879999999999995,19,0,1.47,ZM,1722037751
504,lupiro,-8.3833,36.6667,16.970000000000027,61,0,0.59,TZ,1722037753
505,ciudad lazaro cardenas,17.9583,-102.2,30.0,67,39,5.3,MX,1722037754
506,salinopolis,-0.6136,-47.3561,26.870000000000005,78,38,6.27,BR,1722037755
507,petra,30.3222,35.4793,17.30000000000001,81,0,2.74,JO,1722037622
508,la rinconada,37.4873,-5.9826,23.960000000000036,70,0,2.57,ES,1722037758
509,viedma,-40.8135,-62.9967,6.810000000000002,32,0,4.24,AR,1722037599
510,eyl,7.9803,49.8164,25.220000000000027,78,100,11.25,SO,1722037760
511,cordoba,-31.4135,-64.1811,15.980000000000018,42,0,2.06,AR,1722037716
512,ciudad bolivar,8.1222,-63.5497,26.430000000000007,85,95,3.75,VE,1722037763
513,grand gaube,-20.0064,57.6608,19.650000000000034,83,0,0.89,MU,1722037765
514,liaocheng,36.4439,115.9647,27.680000000000007,87,10,4.16,CN,1722037767
515,vanino,49.0869,140.2543,23.160000000000025,64,56,1.74,RU,1722037768
516,ivdel',60.6911,60.4206,9.890000000000043,96,100,5.29,RU,1722037769
517,daru,-9.0763,143.2092,25.200000000000045,83,100,6.06,PG,1722037770
518,joao camara,-5.5375,-35.8197,20.74000000000001,92,29,4.63,BR,1722037771
519,vredendal,-31.6683,18.5012,12.950000000000045,86,90,2.38,ZA,1722037773
520,rio grande,-32.035,-52.0986,13.060000000000002,88,0,3.36,BR,1722037704
521,shalkar,47.8288,59.6258,21.970000000000027,36,50,2.87,KZ,1722037775
522,tank,32.2217,70.3793,36.64000000000004,42,0,1.78,PK,1722037777
523,umm kaddadah,13.6017,26.6876,27.860000000000014,57,100,6.04,SD,1722037779
524,nizhnekamsk,55.6366,51.8245,13.439999999999998,88,40,3.0,RU,1722037780
525,bodo,67.28,14.405,17.02000000000004,72,0,3.09,NO,1722037781
526,jacksonville,30.3322,-81.6556,26.170000000000016,91,100,3.09,US,1722037759
527,prince rupert,54.3161,-130.3201,15.050000000000011,82,100,5.66,CA,1722037783
528,abingdon,51.6711,-1.2828,15.180000000000007,77,100,1.03,GB,1722037784
529,gazojak,41.1875,61.4036,26.110000000000014,28,2,6.2,TM,1722037786
530,kill devil hills,36.0307,-75.676,26.0,86,0,4.12,US,1722037787
531,neryungri,56.6709,124.6491,23.730000000000018,58,0,0.81,RU,1722037788
532,bukama,-9.2,25.85,18.939999999999998,22,1,1.24,CD,1722037789
533,oppdal,62.5943,9.6912,11.810000000000002,99,100,2.66,NO,1722037790
534,luanda,-8.8368,13.2343,19.78000000000003,87,5,2.05,AO,1722037620
535,santa cruz,-17.8,-63.1667,27.03000000000003,61,0,3.6,BO,1722037310
536,south hedland,-20.4089,118.5983,11.960000000000036,32,0,2.57,AU,1722037793
537,ust'-ilimsk,58.0006,102.6619,21.24000000000001,73,99,1.06,RU,1722037795
538,qarqaraly,49.4058,75.4742,17.950000000000045,73,66,2.69,KZ,1722037796
539,niafunke,15.9322,-3.9906,33.620000000000005,44,13,5.49,ML,1722037797
540,juan griego,11.0817,-63.9655,27.27000000000004,79,3,5.36,VE,1722037798
541,el porvenir,13.7617,-87.3458,23.629999999999995,75,58,2.25,HN,1722037799
542,omerli,37.4022,40.9541,24.57000000000005,53,1,2.37,TR,1722037801
543,francistown,-21.17,27.5079,14.57000000000005,34,0,2.84,BW,1722037803
544,belmonte,-15.8631,-38.8828,22.28000000000003,87,66,2.62,BR,1722037805
545,al wajh,26.2455,36.4525,30.970000000000027,70,0,3.09,SA,1722037806
546,vermillion,42.7794,-96.9292,32.09000000000003,64,0,4.94,US,1722037807
547,sao joao da barra,-21.6403,-41.0511,21.05000000000001,87,15,7.31,BR,1722037809
548,mejit,10.2753,170.8646,27.850000000000023,82,96,9.65,MH,1722037810
549,masterton,-40.9597,175.6575,15.060000000000002,67,100,2.74,NZ,1722037811
550,kenora,49.8167,-94.4337,28.54000000000002,65,75,5.66,CA,1722037702
551,zeerust,-25.5369,26.0751,9.860000000000014,47,49,0.48,ZA,1722037813
552,tsetserleg,47.475,101.4542,14.53000000000003,75,97,0.97,MN,1722037814
553,baiti,13.745,-14.7482,26.360000000000014,81,84,4.22,SN,1722037816
554,kailua-kona,19.6406,-155.9956,28.980000000000018,75,40,7.72,US,1722037817
555,chibougamau,49.9168,-74.3659,20.79000000000002,43,0,1.54,CA,1722037819
556,suva,-18.1416,178.4415,23.710000000000036,69,40,6.69,FJ,1722037820
557,suwayr,30.1171,40.3893,30.52000000000004,25,26,4.36,SA,1722037821
558,tanjung pandan,-2.75,107.65,25.760000000000048,84,63,3.3,ID,1722037822
559,kiffa,16.6166,-11.4045,34.79000000000002,43,77,5.6,MR,1722037824
560,boca suno,-0.7167,-77.1333,25.150000000000034,78,85,1.02,EC,1722037825
561,ksar el boukhari,35.8889,2.7491,27.129999999999995,29,63,0.45,DZ,1722037826
562,praia grande,-24.0058,-46.4028,25.689999999999998,64,100,0.83,BR,1722037575
563,lorengau,-2.0226,147.2712,28.310000000000002,77,87,3.53,PG,1722037828
564,kowary,50.7931,15.8356,15.53000000000003,89,68,1.84,PL,1722037830
565,naze,28.3667,129.4833,28.510000000000048,83,65,5.36,JP,1722037832
566,luganville,-15.5333,167.1667,25.390000000000043,61,94,5.38,VU,1722037833
567,menaka,15.9182,2.4022,34.80000000000001,37,1,1.87,ML,1722037834
568,cockburn town,21.4612,-71.1419,29.980000000000018,84,40,5.14,TC,1722037837
569,shingu,33.7333,135.9833,30.99000000000001,66,98,1.89,JP,1722037838
570,inhambane,-23.865,35.3833,19.650000000000034,81,1,3.31,MZ,1722037839
571,guanhaes,-18.775,-42.9325,14.890000000000043,89,0,2.26,BR,1722037840
572,penzance,50.1186,-5.5371,14.379999999999995,82,31,4.41,GB,1722037841
573,strathfieldsaye,-36.8,144.3667,10.700000000000045,63,73,2.78,AU,1722037842
574,zyryanovsk,49.7386,84.2719,18.730000000000018,86,0,0.78,KZ,1722037844
575,conduaga,8.862,117.4893,27.939999999999998,80,100,1.27,PH,1722037845
576,fort bragg,35.139,-79.006,26.78000000000003,84,100,3.09,US,1722037846
577,wagar,16.1525,36.2032,25.370000000000005,79,100,3.47,SD,1722037847
578,baiao,-2.7906,-49.6717,25.370000000000005,52,16,0.23,BR,1722037849
579,mandalgovi,45.7625,106.2708,15.439999999999998,83,20,5.05,MN,1722037850
580,gobindapur,22.5931,88.0914,27.970000000000027,89,95,6.72,IN,1722037852
581,levuka,50.1834,-105.4011,27.850000000000023,21,20,7.2,CA,1722037853
582,bikenibeu village,1.3673,173.1241,30.980000000000018,66,20,4.63,KI,1722037854
583,hasaki,35.7333,140.8333,30.220000000000027,82,98,1.38,JP,1722037855
584,horta,38.5333,-28.6333,22.79000000000002,88,30,1.34,PT,1722037810
585,parun,35.4207,70.9221,11.150000000000034,56,0,5.7,AF,1722037857
586,al qitena,14.8648,32.3668,27.03000000000003,68,100,6.98,SD,1722037858
587,severo-yeniseyskiy,60.3725,93.0408,20.410000000000025,67,20,0.65,RU,1722037860
588,przysucha,51.3586,20.6289,17.010000000000048,42,84,2.46,PL,1722037861
589,pallasovka,50.05,46.8833,15.629999999999995,58,10,3.81,RU,1722037862
590,point fortin,10.1833,-61.6833,28.27000000000004,81,55,5.97,TT,1722037613
591,dofteana,46.3167,26.5167,17.010000000000048,91,3,1.82,RO,1722037864
